Volcano Name,Country,Location,Latitude,Longitude,Elevation (m),Type,Status
St. Andrew Strait,Papua New Guinea,Admiralty Is-SW Paci,-2.38,147.35,270,Complex volcano,Historical
Baluan,United States,Admiralty Is-SW Paci,-2.57,147.28,254,Stratovolcano,Holocene
Central Bismarck Sea,United States,Admiralty Is-SW Paci,-3.03,147.78,-1300,Submarine volcano,Hydrophonic
Dacht-I-Navar Group,Afghanistan,Afghanistan,33.95,67.92,3800,Lava dome,Holocene
Vakak Group,Afghanistan,Afghanistan,34.25,67.97,3190,Volcanic field,Holocene
Karisimbi,"Congo, DRC",Africa-C,-1.506,29.45,4490,Stratovolcano,Holocene
May-ya-moto,"Congo, DRC",Africa-C,-0.93,29.33,950,Fumarole field,Fumarolic
Nyamulagira,"Congo, DRC",Africa-C,-1.408,29.2,3058,Shield volcano,Historical
Nyiragongo,"Congo, DRC",Africa-C,-1.52,29.25,3470,Stratovolcano,Historical
Tshibinda,"Congo, DRC",Africa-C,-2.32,28.75,1460,Cinder cone,Holocene
Visoke,Rwanda,Africa-C,-1.458,29.485,3696,Stratovolcano,Historical
Bufumbira,Uganda,Africa-C,-1.304,29.683,2100,Cinder cone,Holocene
Bunyaruguru,Uganda,Africa-C,-0.2,30.08,1554,Explosion crater,Holocene
Fort Portal,Uganda,Africa-C,0.7,30.25,1615,Tuff cone,Holocene
Katunga,Uganda,Africa-C,-0.471,30.191,1707,Tuff cone,Holocene
Katwe-Kikorongo,Uganda,Africa-C,-0.08,29.92,1067,Tuff cone,Holocene
Kyatwa,Uganda,Africa-C,0.45,30.25,1430,Tuff cone,Holocene
Muhavura,Uganda,Africa-C,-1.383,29.678,4103,Stratovolcano,Holocene
"Barrier, The",Kenya,Africa-E,2.32,36.57,1032,Shield volcano,Historical
Central Island,Kenya,Africa-E,3.496,36.04,518,Stratovolcano,Holocene
Chyulu Hills,Kenya,Africa-E,-2.68,37.88,2188,Volcanic field,Anthropology
"Eburru, Ol Doinyo",Kenya,Africa-E,-0.65,36.22,2856,Complex volcano,Holocene
Elmenteita Badlands,Kenya,Africa-E,-0.52,36.27,2126,Pyroclastic cone,Holocene
Emuruangogolak,Kenya,Africa-E,1.5,36.33,1285,Shield volcano,Radiocarbon
Homa Mountain,Kenya,Africa-E,-0.38,34.5,1751,Complex volcano,Holocene
Korosi,Kenya,Africa-E,0.77,36.12,1446,Shield volcano,Holocene
Longonot,Kenya,Africa-E,-0.914,36.446,2776,Stratovolcano,Anthropology
Marsabit,Kenya,Africa-E,2.32,37.97,1707,Shield volcano,Holocene
Mega Volcanic Field,Kenya,Africa-E,3.971,38.213,1500,Pyroclastic cone,Holocene
Menengai,Kenya,Africa-E,-0.2,36.07,2278,Shield volcano,Tephrochronology
Namarunu,Kenya,Africa-E,1.98,36.43,817,Shield volcano,Tephrochronology
North Island,Kenya,Africa-E,4.059,36.049,490,Tuff cone,Holocene
Nyambeni Hills,Kenya,Africa-E,0.23,37.87,750,Shield volcano,Holocene
Ol Kokwe,Kenya,Africa-E,0.62,36.075,1130,Shield volcano,Holocene
Olkaria,Kenya,Africa-E,-0.904,36.292,2434,Pumice cone,Radiocarbon
Paka,Kenya,Africa-E,0.92,36.18,1697,Shield volcano,Ar/Ar
Segererua Plateau,Kenya,Africa-E,1.57,37.9,699,Pyroclastic cone,Holocene
Silali,Kenya,Africa-E,1.15,36.23,1528,Shield volcano,Ar/Ar
South Island,Kenya,Africa-E,2.63,36.6,800,Stratovolcano,Historical
Suswa,Kenya,Africa-E,-1.151,36.357,2356,Shield volcano,Holocene
Igwisi Hills,Tanzania,Africa-E,-4.889,31.933,1146,Tuff cone,Holocene
Izumbwe-Mpoli,Tanzania,Africa-E,-8.93,33.4,1568,Pyroclastic cone,Holocene
Kilimanjaro,Tanzania,Africa-E,-3.07,37.35,5895,Stratovolcano,Holocene
Kyejo,Tanzania,Africa-E,-9.229,33.792,2176,Stratovolcano,Historical
"Lengai, Ol Doinyo",Tanzania,Africa-E,-2.764,35.914,2962,Stratovolcano,Historical
Meru,Tanzania,Africa-E,-3.244,36.75,4550,Stratovolcano,Historical
Ngozi,Tanzania,Africa-E,-8.989,33.554,2614,Caldera,Holocene
Rungwe,Tanzania,Africa-E,-9.135,33.668,2953,Stratovolcano,Holocene
SW Usangu Basin,Tanzania,Africa-E,-8.75,33.8,2179,Lava dome,Holocene
Atakor Volcanic Field,Algeria,Africa-N,23.33,5.83,2918,Scoria cones,Holocene
Manzaz Volcanic Field,Algeria,Africa-N,23.92,5.83,1672,Scoria cones,Holocene
Tahalra Volcanic Field,Algeria,Africa-N,22.67,5,1467,Pyroclastic cones,Holocene
"Koussi, Emi",Chad,Africa-N,19.8,18.53,3415,Stratovolcano,Holocene
Todra Volcanic Field,Chad,Africa-N,17.68,8.5,1780,Volcanic field,Holocene
"Toh, Tarso",Chad,Africa-N,21.33,16.33,2000,Volcanic field,Holocene
"Tousside, Tarso",Chad,Africa-N,21.03,16.45,3265,Stratovolcano,Holocene
"Voon, Tarso",Chad,Africa-N,20.92,17.28,3100,Stratovolcano,Fumarolic
Haruj,Libya,Africa-N,27.25,17.5,1200,Scoria cone,Holocene
Wau-en-Namus,Libya,Africa-N,25.05,17.55,547,Caldera,Holocene?
Tin Zaouatene Volcanic Field,Mali,Africa-N,19.83,2.83,700,Volcanic field,Holocene
Bayuda Volcanic Field,Sudan,Africa-N,18.33,32.75,670,Cinder cone,Radiocarbon
Kutum Volcanic Field,Sudan,Africa-N,14.57,25.85,1779,Scoria cone,Holocene
"Marra, Jebel",Sudan,Africa-N,12.95,24.27,3042,Volcanic field,Radiocarbon
Meidob Volcanic Field,Sudan,Africa-N,15.32,26.47,2000,Scoria cone,Holocene
Ardoukoba,Djibouti,Africa-NE,11.58,42.47,298,Fissure vent,Historical
Mousa Alli,Djibouti,Africa-NE,12.469,42.404,1993,Stratovolcano,Holocene
Alid,Eritrea,Africa-NE,14.88,39.92,904,Stratovolcano,Holocene
Assab Volcanic Field,Eritrea,Africa-NE,12.95,42.43,987,Volcanic field,Holocene
Dubbi,Eritrea,Africa-NE,13.579,41.809,1625,Stratovolcano,Historical
Gufa,Eritrea,Africa-NE,12.55,42.53,600,Volcanic field,Holocene
Jalua,Eritrea,Africa-NE,15.042,39.82,713,Stratovolcano,Holocene
Nabro,Eritrea,Africa-NE,13.37,41.7,2218,Stratovolcano,Holocene
Adwa,Ethiopia,Africa-NE,10.063,40.831,1670,Stratovolcano,Holocene
Afdera,Ethiopia,Africa-NE,13.088,40.853,1250,Stratovolcano,Holocene
Alayta,Ethiopia,Africa-NE,12.888,40.573,1496,Shield volcano,Historical
Ale Bagu,Ethiopia,Africa-NE,13.512,40.631,988,Stratovolcano,Holocene
Alu-Dalafilla,Ethiopia,Africa-NE,13.793,40.553,578,Fissure vent,Holocene
Aluto,Ethiopia,Africa-NE,7.77,38.78,2335,Stratovolcano,Holocene
Asavyo,Ethiopia,Africa-NE,13.098,41.599,1338,Shield volcano,Holocene
Ayelu,Ethiopia,Africa-NE,10.082,40.702,2145,Stratovolcano,Holocene
Beru,Ethiopia,Africa-NE,8.95,39.75,1100,Volcanic field,Holocene
Bilate River Field,Ethiopia,Africa-NE,7.07,38.1,1700,Maar,Holocene
Bishoftu Volcanic Field,Ethiopia,Africa-NE,8.78,38.98,1850,Fissure vent,Holocene
Bora Ale,Ethiopia,Africa-NE,13.725,40.6,668,Stratovolcano,Holocene
Bora-Bericcio,Ethiopia,Africa-NE,8.221,39.05,2267,Pumice cone,Holocene
Borawli,Ethiopia,Africa-NE,13.304,40.987,784,Stratovolcano,Holocene
Borawli Complex,Ethiopia,Africa-NE,11.63,41.45,875,Lava dome,Holocene
Boset-Bericha,Ethiopia,Africa-NE,8.558,39.475,2447,Stratovolcano,Holocene
Butajiri-Silti Field,Ethiopia,Africa-NE,8.05,38.35,2281,Fissure vent,Holocene
Chiracha,Ethiopia,Africa-NE,6.65,38.12,1636,Stratovolcano,Holocene
Corbetti Caldera,Ethiopia,Africa-NE,7.193,38.39,2320,Caldera,Holocene
Dabbahu,Ethiopia,Africa-NE,12.595,40.48,1401,Stratovolcano,Holocene
Dabbayra,Ethiopia,Africa-NE,12.38,40.07,1302,Shield volcano,Holocene
Dalaffilla,Ethiopia,Africa-NE,13.792,40.55,613,Stratovolcano,Holocene
Dallol,Ethiopia,Africa-NE,14.242,40.3,-48,Explosion crater,Historical
Dama Ali,Ethiopia,Africa-NE,11.28,41.63,1068,Shield volcano,Historical
Dofan,Ethiopia,Africa-NE,9.35,40.13,1151,Stratovolcano,Holocene
East Chamo Basin,Ethiopia,Africa-NE,5.708,37.713,1150,Cinder cone,Holocene
East Ziway,Ethiopia,Africa-NE,7.874,38.902,1889,Fissure vent,Holocene
Erta Ale,Ethiopia,Africa-NE,13.6,40.67,613,Shield volcano,Historical
Fentale,Ethiopia,Africa-NE,8.975,39.93,2007,Stratovolcano,Historical
Gabillema,Ethiopia,Africa-NE,11.08,41.27,1459,Stratovolcano,Holocene
Gada Ale,Ethiopia,Africa-NE,13.975,40.408,287,Stratovolcano,Holocene
Gedamsa,Ethiopia,Africa-NE,8.357,39.188,1873,Caldera,Holocene
Groppo,Ethiopia,Africa-NE,11.816,40.242,852,Stratovolcano,Holocene
Hayli Gubbi,Ethiopia,Africa-NE,13.51,40.722,493,Shield volcano,Holocene
Hertali,Ethiopia,Africa-NE,9.78,40.33,900,Fissure vent,Holocene
Hobicha Caldera,Ethiopia,Africa-NE,6.78,37.83,1800,Caldera,Holocene
Kone,Ethiopia,Africa-NE,8.788,39.701,1380,Caldera,Historical
Korath Range,Ethiopia,Africa-NE,5.1,35.88,912,Tuff cone,Holocene
Kurub,Ethiopia,Africa-NE,11.88,41.208,625,Shield volcano,Holocene
Liado Hayk,Ethiopia,Africa-NE,9.57,40.28,878,Maar,Holocene
Ma Alalta,Ethiopia,Africa-NE,13.013,40.185,1745,Stratovolcano,Holocene
Mallahle,Ethiopia,Africa-NE,13.27,41.65,1875,Stratovolcano,Holocene
Manda Hararo,Ethiopia,Africa-NE,12.17,40.82,600,Shield volcano,Holocene
Manda-Inakir,Ethiopia,Africa-NE,12.38,42.2,600,Fissure vent,Historical
Mat Ala,Ethiopia,Africa-NE,13.106,41.161,493,Shield volcano,Holocene
Northern Lake Abaya Volcanic Field,Ethiopia,Africa-NE,6.76,37.97,1594,Volcanic field,
O'a Caldera,Ethiopia,Africa-NE,7.47,38.58,2075,Stratovolcano,Holocene
Sodore,Ethiopia,Africa-NE,8.43,39.35,1765,Pyroclastic cone,Holocene
Sork Ale,Ethiopia,Africa-NE,13.18,41.725,1611,Stratovolcano,Holocene
Tat Ali,Ethiopia,Africa-NE,13.284,41.063,655,Shield volcano,Holocene
Tepi,Ethiopia,Africa-NE,7.42,35.43,2728,Shield volcano,Holocene
Tosa Sucha,Ethiopia,Africa-NE,5.92,37.57,1650,Cinder cone,Holocene
Tullu Moye,Ethiopia,Africa-NE,8.159,39.137,2343,Pumice cone,Anthropology
Yangudi,Ethiopia,Africa-NE,10.58,41.042,1383,Complex volcano,Holocene
Cameroon,Cameroon,Africa-W,4.203,9.17,4095,Stratovolcano,Historical
Manengouba,Cameroon,Africa-W,5.03,9.83,2411,Stratovolcano,Holocene
Oku Volcanic Field,Cameroon,Africa-W,6.25,10.5,3011,Maar,Radiocarbon
Tombel Graben,Cameroon,Africa-W,4.758,9.717,500,Cinder cones,Holocene
San Carlos,Equatorial Guinea,Africa-W,3.35,8.52,2260,Shield volcano,Holocene
San Joaquin,Equatorial Guinea,Africa-W,3.35,8.63,2009,Shield volcano,Holocene
Santa Isabel,Equatorial Guinea,Africa-W,3.588,8.762,2999,Shield volcano,Historical
Sao Tome,Sao Tome & Principe,Africa-W,0.32,6.72,2024,Shield volcano,Holocene
Aniakchak,United States,Alaska Peninsula,56.88,-158.17,1341,Caldera,Historical
Black Peak,United States,Alaska Peninsula,56.552,-158.785,1032,Stratovolcano,Radiocarbon
Chiginagak,United States,Alaska Peninsula,57.135,-156.99,2221,Stratovolcano,Historical
Dana,United States,Alaska Peninsula,55.641,-161.214,1354,Stratovolcano,Radiocarbon
Denison,United States,Alaska Peninsula,58.418,-154.449,2287,Stratovolcano,Uncertain
Douglas,United States,Alaska Peninsula,58.855,-153.542,2140,Stratovolcano,Fumarolic
Dutton,United States,Alaska Peninsula,55.183,-162.276,1465,Stratovolcano,Holocene
Emmons Lake,United States,Alaska Peninsula,55.341,-162.073,1436,Caldera,Holocene
Fourpeaked,United States,Alaska Peninsula,58.77,-153.672,2105,Stratovolcano,Uncertain
Frosty,United States,Alaska Peninsula,55.067,-162.835,1728,Stratovolcano,Holocene
Griggs,United States,Alaska Peninsula,58.354,-155.092,2317,Stratovolcano,Holocene
Kaguyak,United States,Alaska Peninsula,58.608,-154.028,901,Stratovolcano,Holocene
Katmai,United States,Alaska Peninsula,58.28,-154.963,2047,Stratovolcano,Historical
Kialagvik,United States,Alaska Peninsula,57.203,-156.745,1677,Stratovolcano,Holocene
Kukak,United States,Alaska Peninsula,58.453,-154.355,2043,Stratovolcano,Fumarolic
Kupreanof,United States,Alaska Peninsula,56.011,-159.797,1895,Stratovolcano,Historical
Mageik,United States,Alaska Peninsula,58.195,-155.253,2165,Stratovolcano,Historical
Martin,United States,Alaska Peninsula,58.172,-155.361,1863,Stratovolcano,Historical
Novarupta,United States,Alaska Peninsula,58.27,-155.157,841,Caldera,Historical
Pavlof,United States,Alaska Peninsula,55.417,-161.894,2493,Stratovolcano,Historical
Pavlof Sister,United States,Alaska Peninsula,55.457,-161.854,2142,Stratovolcano,Historical
Snowy Mountain,United States,Alaska Peninsula,58.336,-154.682,2162,Stratovolcano,Fumarolic
Steller,United States,Alaska Peninsula,58.43,-154.4,2272,Unknown,Uncertain
Stepovak Bay 2,United States,Alaska Peninsula,55.913,-160.041,1323,Cinder cone,Holocene
Stepovak Bay 3,United States,Alaska Peninsula,55.929,-160.002,1555,Cinder cone,Holocene?
Stepovak Bay 4,United States,Alaska Peninsula,55.954,-159.954,1557,Stratovolcano,Pleistocene
Stepovak Bay Group,United States,Alaska Peninsula,55.917,-160.017,1633,Volcanic field,Holocene
Trident,United States,Alaska Peninsula,58.236,-155.1,1864,Stratovolcano,Historical
Ugashik-Peulik,United States,Alaska Peninsula,57.751,-156.368,1474,Stratovolcano,Historical
Ukinrek Maars,United States,Alaska Peninsula,57.832,-156.51,91,Maar,Historical
Veniaminof,United States,Alaska Peninsula,56.17,-159.38,2507,Stratovolcano,Historical
Yantarni,United States,Alaska Peninsula,57.019,-157.185,1345,Stratovolcano,Tephrochronology
Buzzard Creek,United States,Alaska-E,64.062,-148.433,830,Tuff rings,Radiocarbon
Churchill,United States,Alaska-E,61.38,-141.75,5005,Stratovolcano,Radiocarbon
Gordon,United States,Alaska-E,62.13,-143.08,2755,Cinder cone,Holocene
Sanford,United States,Alaska-E,62.22,-144.13,4949,Shield volcano,Holocene
Wrangell,United States,Alaska-E,62.006,-144.017,4278,Shield volcano,Historical
Behm Canal-Rudyerd Bay,United States,Alaska-SE,55.32,-131.05,500,Cinder cone,Holocene
Duncan Canal,United States,Alaska-SE,56.5,-133.1,15,Unknown,Holocene
Edgecumbe,United States,Alaska-SE,57.05,-135.75,970,Stratovolcano,Radiocarbon
Tlevak Strait-Suemez Island,United States,Alaska-SE,55.25,-133.3,50,Volcanic field,Holocene
Augustine,United States,Alaska-SW,59.363,-153.43,1252,Lava dome,Historical
Hayes,United States,Alaska-SW,61.64,-152.411,3034,Stratovolcano,Radiocarbon
Iliamna,United States,Alaska-SW,60.032,-153.09,3053,Stratovolcano,Historical
Redoubt,United States,Alaska-SW,60.485,-152.742,3108,Stratovolcano,Historical
Spurr,United States,Alaska-SW,61.299,-152.251,3374,Stratovolcano,Historical
Espenberg,United States,Alaska-W,66.35,-164.33,243,Volcanic field,Tephrochronology
Imuruk Lake,United States,Alaska-W,65.517,-163.45,610,Shield volcano,Holocene
Imuruk Lake,United States,Alaska-W,65.6,-163.92,610,Shield volcano,Radiocarbon
Ingakslugwat Hills,United States,Alaska-W,61.43,-164.47,190,Cinder cone,Holocene
Kookooligit Mountains,United States,Alaska-W,63.6,-170.43,673,Shield volcano,Holocene
St. Michael,United States,Alaska-W,63.45,-162.12,715,Shield volcano,Anthropology
St. Paul Island,United States,Alaska-W,57.18,-170.3,203,Shield,
Akutan,United States,Aleutian Is,54.134,-165.986,1303,Stratovolcano,Historical
Amak,United States,Aleutian Is,55.424,-163.149,488,Stratovolcano,Historical
Amukta,United States,Aleutian Is,52.5,-171.252,1066,Stratovolcano,Historical
Atka Volcanic Complex,United States,Aleutian Is,52.331,-174.139,1518,Stratovolcano,Historical
Bobrof,United States,Aleutian Is,51.91,-177.438,738,Stratovolcano,Holocene
Bogoslof,United States,Aleutian Is,53.93,-168.03,150,Submarine volcano,Historical
Buldir,United States,Aleutian Is,52.35,175.911,656,Stratovolcano,Holocene
Carlisle,United States,Aleutian Is,52.894,-170.054,1620,Stratovolcano,Historical
Chagulak,United States,Aleutian Is,52.577,-171.13,1142,Stratovolcano,Holocene
Cleveland,United States,Aleutian Is,52.825,-169.944,1730,Stratovolcano,Historical
Davidof,United States,Aleutian Is,51.97,178.33,328,Stratovolcano,Holocene
Fisher,United States,Aleutian Is,54.65,-164.43,1112,Stratovolcano,Historical
Gareloi,United States,Aleutian Is,51.79,-178.794,1573,Stratovolcano,Historical
Great Sitkin,United States,Aleutian Is,52.076,-176.13,1740,Stratovolcano,Historical
Herbert,United States,Aleutian Is,52.742,-170.111,1280,Stratovolcano,Holocene
Isanotski,United States,Aleutian Is,54.765,-163.723,2446,Stratovolcano,Historical
Kagamil,United States,Aleutian Is,52.974,-169.72,893,Stratovolcano,Historical
Kanaga,United States,Aleutian Is,51.923,-177.168,1307,Stratovolcano,Historical
Kasatochi,United States,Aleutian Is,52.177,-175.508,314,Stratovolcano,Historical
Kiska,United States,Aleutian Is,52.103,177.602,1220,Stratovolcano,Historical
Koniuji,United States,Aleutian Is,52.22,-175.13,273,Stratovolcano,Uncertain
Korovin,United States,Aleutian Is,52.381,-174.166,1518,Stratovolcano(es),
Little Sitkin,United States,Aleutian Is,51.95,178.543,1174,Stratovolcano,Historical
Makushin,United States,Aleutian Is,53.891,-166.923,1800,Stratovolcano,Historical
Moffett,United States,Aleutian Is,51.944,-176.747,1196,Stratovolcano,Holocene
Okmok,United States,Aleutian Is,53.43,-168.13,1073,Shield volcano,Historical
Recheschnoi,United States,Aleutian Is,53.157,-168.539,1984,Stratovolcano,Holocene
Roundtop,United States,Aleutian Is,54.8,-163.589,1871,Stratovolcano,Holocene
Seguam,United States,Aleutian Is,52.315,-172.51,1054,Stratovolcano,Historical
Segula,United States,Aleutian Is,52.015,178.136,1160,Stratovolcano,Holocene
Semisopochnoi,United States,Aleutian Is,51.93,179.58,1221,Stratovolcano,Historical
Sergief,United States,Aleutian Is,52.03,-174.93,560,Stratovolcano,Uncertain
Shishaldin,United States,Aleutian Is,54.756,-163.97,2857,Stratovolcano,Historical
Takawangha,United States,Aleutian Is,51.873,-178.006,1449,Stratovolcano,Holocene
Tana,United States,Aleutian Is,52.83,-169.77,1170,Stratovolcanoes,Holocene
Tanaga,United States,Aleutian Is,51.885,-178.146,1806,Stratovolcano,Historical
Uliaga,United States,Aleutian Is,53.065,-169.77,888,Stratovolcano,Holocene
Vsevidof,United States,Aleutian Is,53.13,-168.693,2149,Stratovolcano,Historical
Westdahl,United States,Aleutian Is,54.516,-164.65,1563,Stratovolcano,Historical
Yunaska,United States,Aleutian Is,52.643,-170.629,550,Shield volcano,Historical
Barren Island,India,Andaman Is-Indian O,12.278,93.858,354,Stratovolcano,Historical
Narcondum,India,Andaman Is-Indian O,13.43,94.28,710,Stratovolcano,Holocene
Andrus,Antarctica,Antarctica,-75.8,-132.33,2978,Shield volcano,Holocene
Berlin,Antarctica,Antarctica,-76.05,-136,3478,Shield volcano,Fumarolic
Bridgeman Island,Antarctica,Antarctica,-62.063,-56.713,240,Stratovolcano,Holocene
Bristol Island,Antarctica,Antarctica,-59.017,-26.533,1100,Stratovolcano,Historical
Buckle Island,Antarctica,Antarctica,-66.78,163.25,1239,Stratovolcano,Historical
Candlemas Island,Antarctica,Antarctica,-57.08,-26.67,550,Stratovolcano,Historical
Deception Island,Antarctica,Antarctica,-63.001,-60.652,602,Caldera,Historical
Erebus,Antarctica,Antarctica,-77.53,167.17,3794,Stratovolcano,Historical
Hodson,Antarctica,Antarctica,-56.712,-27.176,835,Stratovolcano,Holocene
Hudson Mountains,Antarctica,Antarctica,-74.33,-99.42,749,Stratovolcano,Uncertain
Leskov Island,Antarctica,Antarctica,-56.656,-28.14,190,Stratovolcano,Fumarolic
Lindenberg Island,Antarctica,Antarctica,-65.03,-60.05,368,Pyroclastic cone,Uncertain
Melbourne,Antarctica,Antarctica,-74.35,164.7,2732,Stratovolcano,Tephrochronology
Melville,Antarctica,Antarctica,-62.02,-57.67,549,Stratovolcano,
Montagu Island,Antarctica,Antarctica,-58.445,-26.374,1370,Shield volcano,Historical
Morning,Antarctica,Antarctica,-78.5,163.53,2723,Shield volcano,Holocene
Mount Haddington Volc Field,Antarctica,Antarctica,-64.15,-57.75,1630,Shield,Holocene
Paulet,Antarctica,Antarctica,-63.579,-55.78,353,Cinder cone,Holocene
Penguin Island,Antarctica,Antarctica,-62.1,-57.93,180,Stratovolcano,Lichenometry
Peter I Island,Antarctica,Antarctica,-68.85,-90.58,1640,Shield volcano,Holocene
"Pleiades, The",Antarctica,Antarctica,-72.67,165.5,3040,Stratovolcano,K-Ar
Protector Seamounts,Antarctica,Antarctica,-55.912,-28.167,-55,Submarine volcano,Historical
Royal Society Range,Antarctica,Antarctica,-78.25,163.33,3000,Cinder cone,Holocene
Saunders,Antarctica,Antarctica,-57.8,-26.483,843,Stratovolcano,Historical
Seal Nunataks Group,Antarctica,Antarctica,-65.03,-60.05,368,Pyroclastic cone,Historical
Siple,Antarctica,Antarctica,-73.43,-126.67,3110,Shield volcano,Holocene
Southern Thule,Antarctica,Antarctica,-59.442,-27.225,1075,Stratovolcano,Historical
Sturge Island,Antarctica,Antarctica,-67.4,164.83,1167,Stratovolcano,Uncertain
Takahe,Antarctica,Antarctica,-76.28,-112.08,3460,Shield volcano,Ice Core
Toney Mountain,Antarctica,Antarctica,-75.8,-115.83,3595,Shield volcano,Holocene
Waesche,Antarctica,Antarctica,-77.17,-126.88,3292,Shield volcano,Holocene
Young Island,Antarctica,Antarctica,-66.42,162.47,1340,Stratovolcano,Fumarolic
Zavodovski,Antarctica,Antarctica,-56.3,-27.57,551,Stratovolcano,Historical
"Arhab, Harra of",Yemen,Arabia-S,15.63,44.08,3100,Volcanic field,Historical
Balhaf-Bir Ali Volcanic Field,Yemen,Arabia-S,14.067,48.3,604,Volcanic field,Holocene
Bir Borhut,Yemen,Arabia-S,15.515,50.935,464,Volcanic field,Holocene
"Dhamar, Harras of",Yemen,Arabia-S,14.57,44.67,3500,Volcanic field,Historical
"Haylan, Jabal",Yemen,Arabia-S,15.4,45.1,1550,Volcanic field,Anthropology
"Marha, Jabal el-",Yemen,Arabia-S,15.245,44.236,2506,Tuff cone,Holocene
"Sawad, Harra Es-",Yemen,Arabia-S,13.58,46.12,1737,Volcanic field,Historical
"Ash Shaam, Harrat",Saudi Arabia,Arabia-W,32.333,37.583,1100,Volcanic field,Holocene
"Birk, Harrat al",Saudi Arabia,Arabia-W,18.37,41.63,587,Volcanic field,Holocene
"Ithnayn, Harrat",Saudi Arabia,Arabia-W,26.58,40.2,1625,Volcanic field,Holocene
"Khaybar, Harrat",Saudi Arabia,Arabia-W,25.5,40,2093,Volcanic field,Historical
"Kishb, Harrat",Saudi Arabia,Arabia-W,22.8,41.38,1475,Volcanic field,Holocene
"Lunayyir, Harrat",Saudi Arabia,Arabia-W,25.17,37.75,1370,Volcanic field,Historical
"Rahah, Harrat ar",Saudi Arabia,Arabia-W,27.8,36.17,1950,Volcanic field,Anthropology
"Rahat, Harrat",Saudi Arabia,Arabia-W,23.08,39.78,1744,Volcanic field,Historical
"Uwayrid, Harrat",Saudi Arabia,Arabia-W,27.08,37.25,1920,Volcanic field,Anthropology
"Yar, Jabal",Saudi Arabia,Arabia-W,17.05,42.83,305,Volcanic field,Historical
East Gakkel Ridge at 85°E,Arctic Ocean,Arctic Ocean,85.608,85.25,-3800,Submarine volcano,Holocene
Antofagasta Volcanic Field,Argentina,Argentina,-26.12,-67.4,3495,Scoria cones,Holocene
Apagado,Argentina,Argentina,-41.88,-72.58,1210,Cinder cone,Holocene
Aracar,Argentina,Argentina,-24.29,-67.783,6095,Stratovolcano,Uncertain
"Atuel, Caldera del",Argentina,Argentina,-34.65,-70.05,5189,Caldera,Holocene
"Blanco, Cerro",Argentina,Argentina,-26.789,-67.765,4670,Caldera,Holocene
"Condor, El",Argentina,Argentina,-26.632,-68.361,6373,Stratovolcano,Holocene
Domuyo,Argentina,Argentina,-36.638,-70.432,4702,Stratovolcano,Holocene
Falso Azufre,Argentina,Argentina,-26.8,-68.37,5906,Scoria cone,Holocene
Huanquihue Group,Argentina,Argentina,-39.887,-71.58,2189,Pyroclastic cone,Holocene
"Nevada, Sierra",Argentina,Argentina,-26.48,-68.58,6173,Stratovolcano,Holocene
Payun Matru,Argentina,Argentina,-36.422,-69.241,3715,Shield volcano,Holocene
Peinado,Argentina,Argentina,-26.623,-68.116,5741,Stratovolcano,Holocene
Puesto Cortaderas,Argentina,Argentina,-37.567,-69.617,970,Pyroclastic cone,Holocene
Pular,Argentina,Argentina,-24.188,-68.054,6233,Stratovolcano,Historical
Risco Plateado,Argentina,Argentina,-34.917,-69.981,4999,Stratovolcano,Holocene?
"Solo, El",Argentina,Argentina,-27.105,-68.713,6205,Complex volcano,Holocene
Tipas,Argentina,Argentina,-27.196,-68.561,6658,Complex volcano,Holocene
Trolon,Argentina,Argentina,-37.738,-70.906,2360,Lava domes,Holocene?
Tromen,Argentina,Argentina,-37.142,-70.03,3978,Stratovolcano,Holocene
Tromen Volcanic Plateau,Argentina,Argentina,-37.144,-70.033,4114,Pyroclastic cone,Holocene
Tuzgle,Argentina,Argentina,-24.05,-66.48,5486,Stratovolcano,Holocene?
"Viedma, Volcan",Argentina,Argentina,-49.358,-73.28,1300,Subglacial volcano,Historical
Aragats,Armenia,Armenia,40.53,44.2,4095,Stratovolcano,Holocene
Ghegham Volcanic Ridge,Armenia,Armenia,40.283,45,3597,Volcanic field,Holocene
Porak,Armenia,Armenia,40.028,45.74,3029,Stratovolcano,Anthropology
Tskhouk-Karckar,Armenia,Armenia,39.742,45.992,3139,Pyroclastic cones,Tephrochronology
Vaiyots-Sar,Armenia,Armenia,39.797,45.497,2575,Unknown,Holocene
Romanche Fracture Zone,Atlantic Ocean,Atlantic-C,-0.433,-19.596,-1528,Submarine volcano,Historical
Pico Fracture Zone,Atlantic Ocean,Atlantic-N,38.75,-38.08,-4200,Submarine volcano,Historical
Jan Mayen,Jan Mayen,Atlantic-N-Jan Mayen,71.082,-8.155,2197,Stratovolcano,Historical
Ascension,Atlantic Ocean,Atlantic-S,-7.95,-14.37,858,Stratovolcano,Holocene
Trindade,Atlantic Ocean,Atlantic-S,-20.514,-29.331,600,Stratovolcano,Holocene
Tristan da Cunha,Atlantic Ocean,Atlantic-S,-37.092,-12.28,2060,Stratovolcano,Historical
Bouvet,Bouvet I.,Atlantic-S,-54.408,3.351,741,Shield volcano,Magnetism
Nightingale Island,United Kingdom,Atlantic-S,-37.42,-12.48,365,Stratovolcano,Historical
Macdonald,Antarctica,Austral Is-C Pacific,-28.98,-140.25,-39,Submarine volcano,Historical
Newer Volcanics Province,Australia,Australia,-37.77,142.5,1011,Shield volcano,Radiocarbon
Agua de Pau,Portugal,Azores,37.77,-25.47,947,Stratovolcano,Historical
Corvo,Portugal,Azores,39.699,-31.111,718,Stratovolcano,Holocene
Don Joao de Castro Bank,Portugal,Azores,38.23,-26.63,-13,Submarine volcano,Historical
Fayal,Portugal,Azores,38.576,-28.713,1041,Stratovolcano,Historical
Flores,Portugal,Azores,39.462,-31.216,914,Stratovolcano,Radiocarbon
Furnas,Portugal,Azores,37.77,-25.32,805,Stratovolcano,Historical
Graciosa,Portugal,Azores,39.02,-27.97,402,Stratovolcano,Holocene
Madeira,Portugal,Azores,32.73,-16.97,1862,Shield volcano,Radiocarbon
Monaco Bank,Portugal,Azores,37.6,-25.88,-197,Submarine volcano,Historical
Pico,Portugal,Azores,38.47,-28.4,2351,Stratovolcano,Historical
Picos Fissural Volcanic System,Portugal,Azores,37.78,-25.67,350,Pyroclastic cone,Historical
Sao Jorge,Portugal,Azores,38.65,-28.08,1053,Fissure vent,Historical
Sete Cidades,Portugal,Azores,37.865,-25.785,842,Stratovolcano,Historical
Terceira,Portugal,Azores,38.73,-27.32,1023,Stratovolcano,Historical
Wurlali,Indonesia,Banda Sea,-7.125,128.675,868,Stratovolcano,Historical
Banda Api,Pacific Ocean,Banda Sea,-4.523,129.881,596,Caldera,Historical
Emperor of China,Pacific Ocean,Banda Sea,-6.62,124.22,-2850,Submarine volcano,Uncertain
Manuk,Pacific Ocean,Banda Sea,-5.543,130.303,257,Stratovolcano,Fumarolic
Nieuwerkerk,Pacific Ocean,Banda Sea,-6.6,124.675,-2285,Submarine volcano,Uncertain
Nila,Pacific Ocean,Banda Sea,-6.73,129.5,781,Stratovolcano,Historical
Serua,Pacific Ocean,Banda Sea,-6.312,130.017,608,Stratovolcano,Historical
Teon,Pacific Ocean,Banda Sea,-6.976,129.144,728,Stratovolcano,Historical
Wetar,Pacific Ocean,Banda Sea,-6.642,126.65,282,Stratovolcano,Historical
Jatun Mundo Quri Warani,Bolivia,Bolivia,-19.78,-66.48,5438,Lava domes,Holocene?
"Jayu Khota, Laguna",Bolivia,Bolivia,-19.463,-67.432,3650,Maars,Holocene
Pampa Luxsar,Bolivia,Bolivia,-20.85,-68.2,5543,Volcanic field,Holocene
Parinacota,Bolivia,Bolivia,-18.166,-69.142,6336,Stratovolcano,Holocene
Tambo Quemado,Bolivia,Bolivia,-18.62,-68.75,4215,Maar,Holocene
"Yumia, Cerro",Bolivia,Bolivia,-21.5,-67.5,4050,Cone,Holocene
Bombalai,Malaysia,Borneo,4.4,117.88,531,Pyroclastic cone,Holocene
Bagana,Papua New Guinea,Bougainville-SW Paci,-6.137,155.196,1855,Lava cone,Historical
Balbi,Papua New Guinea,Bougainville-SW Paci,-5.92,154.98,2715,Stratovolcano,Holocene
Billy Mitchell,Papua New Guinea,Bougainville-SW Paci,-6.092,155.225,1544,Pyroclastic shield,Radiocarbon
Loloru,Papua New Guinea,Bougainville-SW Paci,-6.52,155.62,1887,Pyroclastic shield,Radiocarbon
Takuan Group,Papua New Guinea,Bougainville-SW Paci,-6.442,155.608,2210,Volcanic complex,Holocene
Tore,Papua New Guinea,Bougainville-SW Paci,-5.835,154.935,2175,Lava cone,Holocene
Alligator Lake,Canada,Canada,60.42,-135.42,2217,Volcanic field,Holocene
Atlin Volcanic Field,Canada,Canada,59.68,-133.32,1880,Cinder cone,Historical
Bridge River Cones,Canada,Canada,50.8,-123.4,2500,Volcanic field,Holocene
Cayley Volcanic Field,Canada,Canada,50.12,-123.28,2375,Volcanic field,
Crow Lagoon,Canada,Canada,54.7,-130.23,335,Pyroclastic cone,Holocene
Edziza,Canada,Canada,57.72,-130.63,2786,Stratovolcano,Radiocarbon
Fort Selkirk,Canada,Canada,62.93,-137.38,1239,Volcanic field,Holocene
Garibaldi,Canada,Canada,49.85,-123,2678,Stratovolcano,Radiocarbon
Garibaldi Lake,Canada,Canada,49.933,-123,2316,Volcanic field,Holocene
Heart Peaks,Canada,Canada,58.6,-131.97,2012,Shield volcano,Holocene
Hoodoo Mountain,Canada,Canada,56.78,-131.28,1850,Subglacial volcano,Holocene
Iskut-Unuk River Cones,Canada,Canada,56.58,-130.55,1880,Cinder cone,Radiocarbon
Level Mountain,Canada,Canada,58.42,-131.35,2164,Shield volcano,Holocene
Meager,Canada,Canada,50.63,-123.5,2680,Complex volcano,Radiocarbon
Milbanke Sound Group,Canada,Canada,52.5,-128.73,335,Cinder cone,Holocene
Nazko,Canada,Canada,52.928,-123.732,1238,Cinder cone,Radiocarbon
Satah Mountain,Canada,Canada,52.47,-124.7,1921,Volcanic field,Holocene
Silverthrone,Canada,Canada,51.43,-126.3,3160,Caldera,Holocene
Spectrum Range,Canada,Canada,57.43,-130.68,2430,Shield volcano,Holocene
Tseax River Cone,Canada,Canada,55.12,-128.9,609,Pyroclastic cone,Radiocarbon
Tuya Volcanic Field,Canada,Canada,59.37,-130.58,2123,Volcanic field,Holocene
Wells Gray-Clearwater,Canada,Canada,52.33,-120.57,2576,Cinder cone,Dendrochronology
Fuerteventura,Spain,Canary Is,28.358,-14.02,529,Fissure vent,Holocene
Gran Canaria,Spain,Canary Is,28,-15.58,1950,Fissure vent,Radiocarbon
Hierro,Spain,Canary Is,27.73,-18.03,1500,Shield volcano,Historical
La Palma,Spain,Canary Is,28.57,-17.83,2426,Stratovolcano,Historical
Lanzarote,Spain,Canary Is,29.03,-13.63,670,Fissure vent,Historical
Tenerife,Spain,Canary Is,28.271,-16.641,3715,Stratovolcano,Historical
Brava,Cape Verde,Cape Verde Is,14.85,-24.72,900,Stratovolcano,Holocene
Fogo,Cape Verde,Cape Verde Is,14.95,-24.35,2829,Stratovolcano,Historical
Santo Antao,Cape Verde,Cape Verde Is,17.07,-25.17,1979,Stratovolcano,Holocene
"Incahuasi, Nevado de",Argentina,Chile,-27.033,-68.296,6638,Complex volcano,Holocene
Lanin,Argentina,Chile-C,-39.637,-71.502,3776,Stratovolcano,Holocene
Maipo,Argentina,Chile-C,-34.164,-69.832,5323,Caldera,Historical
San Jose,Argentina,Chile-C,-33.789,-69.895,6070,Stratovolcano,Historical
Antillanca Volcanic Complex,Chile,Chile-C,-40.783,-72.15,1979,Stratovolcano,Holocene
Antuco,Chile,Chile-C,-37.406,-71.349,2979,Stratovolcano,Historical
"Azul, Cerro",Chile,Chile-C,-35.653,-70.761,3788,Stratovolcano,Historical
"Blancas, Lomas",Chile,Chile-C,-36.286,-71.009,2268,Stratovolcano,Holocene
Caburgua-Huelemolle,Chile,Chile-C,-39.25,-71.75,1652,Cinder cone,Tephrochronology
Calabozos,Chile,Chile-C,-35.558,-70.496,3508,Caldera,Holocene
Callaqui,Chile,Chile-C,-37.92,-71.45,3164,Stratovolcano,Historical
Carran-Los Venados,Chile,Chile-C,-40.35,-72.07,1114,Pyroclastic cone,Historical
"Chillan, Nevados de",Chile,Chile-C,-36.868,-71.378,3180,Stratovolcano,Historical
Copahue,Chile,Chile-C,-37.856,-71.183,2953,Stratovolcano,Historical
Descabezado Grande,Chile,Chile-C,-35.58,-70.75,3953,Stratovolcano,Historical
Infiernillo,Chile,Chile-C,-35.123,-69.9,3007,Lava dome,Holocene
Llaima,Chile,Chile-C,-38.692,-71.729,3125,Stratovolcano,Historical
"Longavi, Nevado de",Chile,Chile-C,-36.193,-71.161,3242,Stratovolcano,Holocene
Lonquimay,Chile,Chile-C,-38.379,-71.586,2832,Stratovolcano,Historical
"Mariñaqui, Laguna",Chile,Chile-C,-38.255,-71.167,2108,Stratovolcano,Holocene
"Maule, Laguna del",Chile,Chile-C,-36.058,-70.492,2162,Stratovolcano,Holocene
Mocho-Choshuenco,Chile,Chile-C,-39.927,-72.027,2422,Stratovolcano,Historical
Palomo,Chile,Chile-C,-34.608,-70.295,4860,Stratovolcano,Holocene
"Pantojo, Cerro",Chile,Chile-C,-40.77,-71.95,1897,Stratovolcano,Holocene
Planchon-Peteroa,Chile,Chile-C,-35.223,-70.568,3977,Caldera,Historical
Puntiagudo-Cordon Cenizos,Chile,Chile-C,-40.969,-72.264,2493,Stratovolcano,Historical
Puyehue-Cordon Caulle,Chile,Chile-C,-40.59,-72.117,2236,Stratovolcano,Holocene
Quetrupillan,Chile,Chile-C,-39.496,-71.722,2360,Caldera,Historical
"Resago, Volcan",Chile,Chile-C,-36.45,-70.92,1890,Cinder cone,Holocene
San Pedro-Pellado,Chile,Chile-C,-35.989,-70.849,3621,Stratovolcano,Holocene
Sollipulli,Chile,Chile-C,-38.97,-71.52,2282,Caldera,Radiocarbon
Tinguiririca,Chile,Chile-C,-34.814,-70.352,4280,Stratovolcano,Historical
Tolhuaca,Chile,Chile-C,-38.31,-71.645,2739,Stratovolcano,Holocene
Tralihue,Chile,Chile-C,-38.509,-70.898,2448,Cinder cone,Holocene
Tupungatito,Chile,Chile-C,-33.425,-69.797,5660,Stratovolcano,Historical
Villarrica,Chile,Chile-C,-39.42,-71.93,2847,Stratovolcano,Historical
Rapa Nui,Chile,Chile-Is,-27.114,-109.356,501,Shield volcanoes,Holocene
Robinson Crusoe,Chile,Chile-Is,-33.658,-78.85,922,Shield volcano,Historical
San Felix,Chile,Chile-Is,-26.27,-80.12,183,Shield volcano,Holocene
"Bayo Gorbea, Cerro",Argentina,Chile-N,-25.414,-68.588,5413,Complex volcano,Holocene
Cordon del Azufre,Argentina,Chile-N,-25.336,-68.521,5481,Complex volcano,Holocene
Corrida de Cori Volcanic Field,Argentina,Chile-N,-25.083,-68.367,5451,Stratovolcano,Holocene
Llullaillaco,Argentina,Chile-N,-24.72,-68.53,6739,Stratovolcano,Historical
"Ojos del Salado, Nevados",Argentina,Chile-N,-27.109,-68.541,6879,Stratovolcano,Holocene
Socompa,Argentina,Chile-N,-24.396,-68.246,6031,Stratovolcano,Radiocarbon
"Azufre, Cerro del",Bolivia,Chile-N,-21.787,-68.237,5846,Stratovolcano,Holocene
Guayaques,Bolivia,Chile-N,-22.895,-67.566,5598,Lava dome,Holocene
Irruputuncu,Bolivia,Chile-N,-20.73,-68.55,5163,Stratovolcano,Historical
Olca-Paruma,Bolivia,Chile-N,-20.939,-68.413,5705,Stratovolcano,Historical
Sairecabur,Bolivia,Chile-N,-22.719,-67.891,5961,Stratovolcano,Holocene
Acamarachi,Chile,Chile-N,-23.292,-67.618,6023,Stratovolcano,Holocene
Caichinque,Chile,Chile-N,-23.949,-67.74,4458,Maar,Holocene
Chiliques,Chile,Chile-N,-23.58,-67.7,5778,Stratovolcano,Holocene?
Colachi,Chile,Chile-N,-23.236,-67.645,5631,Stratovolcano,Holocene
Copiapo,Chile,Chile-N,-27.3,-69.13,6052,Stratovolcano,Uncertain
Cordon de Puntas Negras,Chile,Chile-N,-23.743,-67.534,5852,Stratovolcano,Holocene
Guallatiri,Chile,Chile-N,-18.42,-69.092,6071,Stratovolcano,Historical
Isluga,Chile,Chile-N,-19.15,-68.83,5550,Stratovolcano,Historical
Lascar,Chile,Chile-N,-23.37,-67.73,5592,Stratovolcano,Historical
Lastarria,Chile,Chile-N,-25.168,-68.507,5706,Stratovolcano,Holocene
Licancabur,Chile,Chile-N,-22.83,-67.88,5916,Stratovolcano,Holocene
Miniques,Chile,Chile-N,-23.82,-67.77,5910,Stratovolcano,Holocene
"Negrillar, El",Chile,Chile-N,-24.18,-68.25,3500,Pyroclastic cone,Holocene
"Negrillar, La",Chile,Chile-N,-24.319,-68.59,4220,Pyroclastic cone,Holocene
"Overo, Cerro",Chile,Chile-N,-23.52,-67.67,4555,Maar,Holocene
Purico Complex,Chile,Chile-N,-23,-67.75,5703,Pyroclastic shield,Holocene
Putana,Chile,Chile-N,-22.557,-67.853,5884,Stratovolcano,Historical
San Pedro-San Pablo,Chile,Chile-N,-21.888,-68.391,6142,Stratovolcano,Historical
Taapaca,Chile,Chile-N,-18.1,-69.5,5860,Lava dome,Holocene
Tacora,Chile,Chile-N,-17.72,-69.77,5980,Stratovolcano,Fumarolic
Tata Sabaya,Chile,Chile-N,-19.13,-68.53,5430,Unknown,Holocene
Tilocalar,Chile,Chile-N,-23.97,-68.13,3109,Stratovolcano,Holocene
"Tujle, Cerro",Chile,Chile-N,-23.83,-67.95,3550,Stratovolcano,Holocene
Aguilera,Chile,Chile-S,-50.33,-73.75,2546,Stratovolcano,Radiocarbon
Arenales,Chile,Chile-S,-47.2,-73.483,3437,Stratovolcano,Historical
"Burney, Monte",Chile,Chile-S,-52.33,-73.4,1758,Stratovolcano,Historical
Calbuco,Chile,Chile-S,-41.33,-72.618,1974,Stratovolcano,Historical
Cay,Chile,Chile-S,-45.059,-72.984,2090,Stratovolcano,Holocene
Cayute-La Vigueria,Chile,Chile-S,-41.25,-72.27,506,Pyroclastic cone,Holocene
Cayutue-La Vigueria,Chile,Chile-S,-41.3,-72.27,506,Pyroclastic cones,Tephrochronology
Chaiten,Chile,Chile-S,-42.833,-72.646,1122,Caldera,Holocene
Corcovado,Chile,Chile-S,-43.189,-72.794,1826,Stratovolcanoes,Radiocarbon
Fueguino,Chile,Chile-S,-54.97,-70.262,157,Lava dome,Holocene
Hornopiren,Chile,Chile-S,-41.874,-72.431,1572,Stratovolcano,Holocene
"Hudson, Cerro",Chile,Chile-S,-45.9,-72.97,1905,Stratovolcano,Historical
Huequi,Chile,Chile-S,-42.377,-72.578,1318,Stratovolcano,Historical
Lautaro,Chile,Chile-S,-49.019,-73.504,3542,Stratovolcano,Historical
Maca,Chile,Chile-S,-45.1,-73.17,2960,Stratovolcano,Holocene
Melimoyu,Chile,Chile-S,-44.08,-72.88,2400,Cinder cone,Holocene
Mentolat,Chile,Chile-S,-44.7,-73.08,1660,Cinder cone,Holocene
Michinmahuida,Chile,Chile-S,-42.799,-72.445,2452,Stratovolcano,Historical
Osorno,Chile,Chile-S,-41.105,-72.496,2659,Stratovolcano,Historical
Palena Volcanic Group,Chile,Chile-S,-43.42,-72.83,2991,Stratovolcano,Historical
Pali-Aike Volcanic Field,Chile,Chile-S,-52.082,-69.698,282,Cinder cone,Anthropology
Puyuhuapi,Chile,Chile-S,-44.3,-72.53,524,Stratovolcano,Holocene
Reclus,Chile,Chile-S,-50.964,-73.585,1000,Stratovolcano,Radiocarbon
Tronador,Chile,Chile-S,-41.157,-71.885,3478,Stratovolcano,Holocene?
Yanteles,Chile,Chile-S,-43.469,-72.782,1790,Stratovolcano,Historical
Yate,Chile,Chile-S,-41.755,-72.396,2187,Stratovolcano,Holocene
Crater Basalt Volcanic Field,Argentina,Chile-S/Argentina,-42.018,-70.194,1344,Cinder cones,Holocene
Arxan-Chaihe,China,China-E,47.45,120.8,1677,Cinder cones,Radiocarbon
Honggeertu,China,China-E,41.59,113.111,1605,Cinder cone,Holocene
Jingpohu,China,China-E,44.08,128.83,1000,Volcanic field,Radiocarbon
Keluo Group,China,China-E,49.37,125.92,670,Pyroclastic cone,Holocene
Longgang Group,China,China-E,42.33,126.5,1000,Cinder cone,Radiocarbon
Wudalianchi,China,China-E,48.722,126.15,597,Volcanic field,Historical
Changbaishan,North Korea,China-E,41.98,128.08,2744,Stratovolcano,Historical
Tengchong,China,China-S,25.23,98.5,2865,Pyroclastic cone,Historical
Ashikule Volcanic Field,China,China-W,35.742,81.646,5090,Pyroclastic cone,Historical
Unnamed,China,China-W,35.85,91.7,5400,Volcanic field,Holocene
Azufral,Colombia,Colombia,1.08,-77.68,4070,Stratovolcano,Radiocarbon
"Bravo, Cerro",Colombia,Colombia,5.091,-75.293,3985,Stratovolcano,Radiocarbon
Cumbal,Colombia,Colombia,0.95,-77.87,4764,Stratovolcano,Historical
Dona Juana,Colombia,Colombia,1.5,-76.936,4137,Stratovolcano,Historical
Galeras,Colombia,Colombia,1.22,-77.37,4276,Complex volcano,Historical
"Huila, Nevado del",Colombia,Colombia,2.93,-76.03,5364,Stratovolcano,Historical
Machin,Colombia,Colombia,4.487,-75.389,2749,Stratovolcano,Radiocarbon
Petacas,Colombia,Colombia,1.57,-76.78,3280,Lava dome,Holocene
Purace,Colombia,Colombia,2.32,-76.4,4650,Stratovolcano,Historical
Romeral,Colombia,Colombia,5.203,-75.363,3769,Stratovolcano,Radiocarbon
"Ruiz, Nevado del",Colombia,Colombia,4.892,-75.324,5279,Stratovolcano,Historical
Santa Isabel,Colombia,Colombia,4.818,-75.365,4944,Shield volcano,Radiocarbon
Sotara,Colombia,Colombia,2.108,-76.592,4400,Stratovolcano,Holocene
"Tolima, Nevado del",Colombia,Colombia,4.658,-75.33,5215,Stratovolcano,Historical
Chiles-Cerro Negro,Ecuador,Colombia,0.817,-77.938,4698,Stratovolcano,Holocene
Arenal,Costa Rica,Costa Rica,10.463,-84.703,1670,Stratovolcano,Historical
Barva,Costa Rica,Costa Rica,10.135,-84.1,2906,Complex volcano,Tephrochronology
Irazu,Costa Rica,Costa Rica,9.979,-83.852,3436,Stratovolcano,Historical
Miravalles,Costa Rica,Costa Rica,10.748,-85.153,2028,Stratovolcano,Historical
Orosi,Costa Rica,Costa Rica,10.98,-85.473,1659,Stratovolcano,Uncertain
Platanar,Costa Rica,Costa Rica,10.3,-84.366,2267,Stratovolcano,Holocene
Poas,Costa Rica,Costa Rica,10.2,-84.233,2697,Stratovolcano,Historical
Rincon de la Vieja,Costa Rica,Costa Rica,10.83,-85.324,1916,Complex volcano,Historical
Tenorio,Costa Rica,Costa Rica,10.673,-85.015,1916,Stratovolcano,Holocene
Turrialba,Costa Rica,Costa Rica,10.025,-83.767,3340,Stratovolcano,Historical
Dawson Strait Group,Papua New Guinea,D'Entrecasteaux Is,-9.62,150.88,500,Volcanic field,Hydration Rind
Goodenough,Papua New Guinea,D'Entrecasteaux Is,-9.358,150.246,220,Volcanic field,Holocene
Iamalele,Papua New Guinea,D'Entrecasteaux Is,-9.52,150.53,200,Lava dome,Holocene
Antisana,Ecuador,Ecuador,-0.481,-78.141,5753,Stratovolcano,Historical
Atacazo,Ecuador,Ecuador,-0.353,-78.617,4463,Stratovolcano,Radiocarbon
Cayambe,Ecuador,Ecuador,0.029,-77.986,5790,Compound volcano,Historical
Chacana,Ecuador,Ecuador,-0.375,-78.25,4643,Caldera,Historical
Chachimbiro,Ecuador,Ecuador,0.468,-78.287,4106,Caldera,Radiocarbon
Chimborazo,Ecuador,Ecuador,-1.469,-78.817,6261,Stratovolcano,Radiocarbon
Cotopaxi,Ecuador,Ecuador,-0.677,-78.436,5911,Stratovolcano,Historical
Cuicocha,Ecuador,Ecuador,0.308,-78.364,3246,Stratovolcano,Holocene
Guagua Pichincha,Ecuador,Ecuador,-0.171,-78.598,4784,Stratovolcano,Historical
Illiniza,Ecuador,Ecuador,-0.663,-78.715,5162,Stratovolcano,Holocene
Imbabura,Ecuador,Ecuador,0.258,-78.183,4609,Compound volcano,Historical
Licto,Ecuador,Ecuador,-1.78,-78.613,3336,Scoria cone,Holocene
Mojanda,Ecuador,Ecuador,0.13,-78.27,4263,Stratovolcanoes,Holocene?
Pululahua,Ecuador,Ecuador,0.038,-78.463,3356,Caldera,Radiocarbon
Quilotoa,Ecuador,Ecuador,-0.85,-78.9,3914,Caldera,Radiocarbon
Reventador,Ecuador,Ecuador,-0.077,-77.656,3562,Stratovolcano,Historical
Sangay,Ecuador,Ecuador,-2.005,-78.341,5286,Stratovolcano,Historical
Soche,Ecuador,Ecuador,0.552,-77.58,3955,Stratovolcano,Radiocarbon
Sumaco,Ecuador,Ecuador,-0.538,-77.626,3990,Stratovolcano,Historical
Tungurahua,Ecuador,Ecuador,-1.467,-78.442,5023,Stratovolcano,Historical
Apaneca Range,El Salvador,El Salvador,13.872,-89.742,2028,Stratovolcano,Holocene
Apastepeque Field,El Salvador,El Salvador,13.72,-88.77,700,Volcanic field,Holocene
"Aramuaca, Laguna",El Salvador,El Salvador,13.428,-88.105,181,Maar,Holocene
Chinameca,El Salvador,El Salvador,13.478,-88.33,1300,Stratovolcano,Holocene
"Cinotepeque, Cerro",El Salvador,El Salvador,14.02,-89.25,665,Volcanic field,Holocene
Coatepeque Caldera,El Salvador,El Salvador,13.87,-89.55,746,Caldera,Holocene
Conchagua,El Salvador,El Salvador,13.277,-87.853,1250,Stratovolcano,Uncertain
Conchaguita,El Salvador,El Salvador,13.22,-87.765,550,Stratovolcano,Historical
Guazapa,El Salvador,El Salvador,13.9,-89.12,1438,Stratovolcano,Holocene
Ilopango,El Salvador,El Salvador,13.672,-89.053,450,Caldera,Historical
Izalco,El Salvador,El Salvador,13.813,-89.633,1950,Stratovolcano,Historical
San Diego,El Salvador,El Salvador,14.27,-89.48,781,Volcanic field,Holocene
San Marcelino,El Salvador,El Salvador,13.853,-89.63,2381,Stratovolcano,Historical
San Miguel,El Salvador,El Salvador,13.434,-88.269,2130,Stratovolcano,Historical
San Salvador,El Salvador,El Salvador,13.734,-89.294,1893,Stratovolcano,Historical
San Vicente,El Salvador,El Salvador,13.595,-88.837,2182,Stratovolcano,Holocene
Santa Ana,El Salvador,El Salvador,13.853,-89.63,2381,Stratovolcano,Historical
"Singuil, Cerro",El Salvador,El Salvador,14.054,-89.631,926,Cinder cone,Holocene
Taburete,El Salvador,El Salvador,13.435,-88.532,1172,Stratovolcano,Holocene
Tecapa,El Salvador,El Salvador,13.494,-88.502,1593,Stratovolcano,Holocene
"Tigre, El",El Salvador,El Salvador,13.47,-88.43,1640,Stratovolcano,Holocene
Usulutan,El Salvador,El Salvador,13.419,-88.471,1449,Stratovolcano,Holocene
Manda Gargori,Ethiopia,Ethiopia,11.75,41.48,700,Fissure vents,Anthropology
Koro,Fiji,Fiji Is-SW Pacific,-17.32,179.4,522,Cinder cone,Holocene
Taveuni,Fiji,Fiji Is-SW Pacific,-16.82,-179.97,1241,Shield volcano,Radiocarbon
Nabukelevu,Tonga,Fiji Is-SW Pacific,-19.12,177.98,805,Lava domes,Radiocarbon
Chaine des Puys,France,France,45.775,2.97,1464,Cinder cone,Radiocarbon
Alcedo,Ecuador,Galapagos,-0.43,-91.12,1130,Shield volcano,Historical
"Azul, Cerro",Ecuador,Galapagos,-0.92,-91.408,1640,Shield volcano,Historical
Darwin,Ecuador,Galapagos,-0.18,-91.28,1330,Shield volcano,Holocene
Ecuador,Ecuador,Galapagos,-0.02,-91.546,790,Shield volcano,Holocene
Fernandina,Ecuador,Galapagos,-0.37,-91.55,1476,Shield volcano,Historical
Genovesa,Ecuador,Galapagos,0.32,-89.958,64,Shield volcano,Holocene
Marchena,Ecuador,Galapagos,0.33,-90.47,343,Shield volcano,Historical
"Negra, Sierra",Ecuador,Galapagos,-0.83,-91.17,1124,Shield volcano,Historical
Pinta,Ecuador,Galapagos,0.58,-90.75,780,Shield volcano,Historical
San Cristobal,Ecuador,Galapagos,-0.88,-89.5,759,Shield volcano,Holocene
Santa Cruz,Ecuador,Galapagos,-0.62,-90.33,864,Shield volcano,Holocene
Santiago,Ecuador,Galapagos,-0.22,-90.77,920,Shield volcano,Historical
Wolf,Ecuador,Galapagos,0.02,-91.35,1710,Shield volcano,Historical
Kabargin Oth Group,Georgia,Georgia,42.55,44,3650,Cinder cone,Holocene
Kazbek,Georgia,Georgia,42.7,44.5,5050,Stratovolcano,Tephrochronology
Samsari Volcanic Center,Georgia,Georgia,41.542,43.7,3290,Lava cone,Holocene
Unnamed,Georgia,Georgia,42.45,44.25,3750,Cinder cone,Holocene
West Eifel Volcanic Field,Germany,Germany,50.17,6.85,600,Maar,Radiocarbon
Methana,Greece,Greece,37.615,23.336,760,Lava dome,Historical
Milos,Greece,Greece,36.699,24.439,751,Stratovolcano,Holocene
Nisyros,Greece,Greece,36.586,27.16,698,Stratovolcano,Historical
Santorini,Greece,Greece,36.404,25.396,367,Shield volcano,Historical
Yali,Greece,Greece,36.671,27.14,180,Lava dome,Holocene
Acatenango,Guatemala,Guatemala,14.501,-90.876,3976,Stratovolcano,Historical
Agua,Guatemala,Guatemala,14.465,-90.743,3760,Stratovolcano,Holocene
Almolonga,Guatemala,Guatemala,14.797,-91.519,3173,Stratovolcano,Historical
Atitlan,Guatemala,Guatemala,14.583,-91.186,3535,Stratovolcano,Historical
Chingo,Guatemala,Guatemala,14.12,-89.73,1775,Stratovolcano,Holocene
Chiquimula Volcanic Field,Guatemala,Guatemala,14.83,-89.55,1192,Cinder cone,Holocene
Cuilapa-Barbarena,Guatemala,Guatemala,14.33,-90.4,1454,Volcanic field,Holocene
Flores,Guatemala,Guatemala,14.308,-89.992,1600,Volcanic field,Holocene
Fuego,Guatemala,Guatemala,14.473,-90.88,3763,Stratovolcano,Historical
Ipala,Guatemala,Guatemala,14.55,-89.63,1650,Stratovolcano,Holocene
Ixtepeque,Guatemala,Guatemala,14.42,-89.68,1292,Lava dome,Holocene
Jumaytepeque,Guatemala,Guatemala,14.34,-90.271,1802,Volcanic field,Holocene
Moyuta,Guatemala,Guatemala,14.03,-90.1,1662,Stratovolcano,Hot Springs
Pacaya,Guatemala,Guatemala,14.382,-90.601,2569,Complex volcano,Historical
Quezaltepeque,Guatemala,Guatemala,14.57,-89.45,1200,Volcanic field,Holocene
Santa Maria,Guatemala,Guatemala,14.757,-91.552,3745,Stratovolcano,Historical
"Santiago, Cerro",Guatemala,Guatemala,14.33,-89.87,1192,Volcanic field,Holocene
Suchitan,Guatemala,Guatemala,14.4,-89.78,2042,Stratovolcano,Holocene
Tahual,Guatemala,Guatemala,14.43,-89.9,1716,Stratovolcano,Holocene
Tajumulco,Guatemala,Guatemala,15.043,-91.903,4203,Stratovolcano,Holocene
Tecuamburro,Guatemala,Guatemala,14.156,-90.407,1845,Stratovolcano,Radiocarbon
Toliman,Guatemala,Guatemala,14.612,-91.189,3158,Stratovolcano,Holocene
Amasing,Indonesia,Halmahera-Indonesia,-0.53,127.48,1030,Stratovolcano,Holocene
Bibinoi,Indonesia,Halmahera-Indonesia,-0.761,127.725,932,Stratovolcano,Holocene
Dukono,Indonesia,Halmahera-Indonesia,1.693,127.894,1229,Complex volcano,Historical
Gamalama,Indonesia,Halmahera-Indonesia,0.8,127.33,1715,Stratovolcano,Historical
Gamkonora,Indonesia,Halmahera-Indonesia,1.38,127.53,1635,Stratovolcano,Historical
Hiri,Indonesia,Halmahera-Indonesia,0.9,127.32,630,Stratovolcano,Holocene
Ibu,Indonesia,Halmahera-Indonesia,1.488,127.63,1325,Stratovolcano,Historical
Jailolo,Indonesia,Halmahera-Indonesia,1.08,127.439,993,Stratovolcano,Holocene
Kie Besi,Indonesia,Halmahera-Indonesia,0.32,127.4,1357,Stratovolcano,Historical
Mare,Indonesia,Halmahera-Indonesia,0.57,127.4,308,Unknown,Holocene
Moti,Indonesia,Halmahera-Indonesia,0.454,127.411,927,Stratovolcano,Holocene
Tarakan,Indonesia,Halmahera-Indonesia,1.83,127.83,318,Pyroclastic cone,Holocene
Tidore,Indonesia,Halmahera-Indonesia,0.658,127.4,1730,Stratovolcano,Holocene
Tigalalu,Indonesia,Halmahera-Indonesia,0.07,127.42,422,Unknown,Holocene
Tobaru,Indonesia,Halmahera-Indonesia,1.63,127.67,1035,Unknown,Holocene
Todoko-Ranu,Indonesia,Halmahera-Indonesia,1.25,127.47,979,Caldera,Holocene
Haleakala,United States,Hawaiian Is,20.708,-156.25,3055,Shield volcano,Historical
Hualalai,United States,Hawaiian Is,19.692,-155.87,2523,Shield volcano,Historical
Kama'ehuakanaloa,United States,Hawaiian Is,18.92,-155.27,-975,Submarine volcano,Historical
Kilauea,United States,Hawaiian Is,19.421,-155.287,1222,Shield volcano,Historical
Mauna Kea,United States,Hawaiian Is,19.82,-155.47,4205,Shield volcano,Radiocarbon
Mauna Loa,United States,Hawaiian Is,19.475,-155.608,4170,Shield volcano,Historical
Akan,Japan,Hokkaido-Japan,43.384,144.013,1499,Caldera,Historical
Esan,Japan,Hokkaido-Japan,41.805,141.166,618,Stratovolcano,Historical
Hokkaido-Komagatake,Japan,Hokkaido-Japan,42.063,140.677,1131,Stratovolcano,Historical
Kussharo,Japan,Hokkaido-Japan,43.615,144.427,574,Caldera,Tephrochronology
Kuttara,Japan,Hokkaido-Japan,42.491,141.16,549,Stratovolcano,Tephrochronology
Mashu,Japan,Hokkaido-Japan,43.572,144.561,857,Caldera,Radiocarbon
Niseko,Japan,Hokkaido-Japan,42.875,140.659,1308,Stratovolcano,Holocene
Oshima-Oshima,Japan,Hokkaido-Japan,41.51,139.367,732,Stratovolcano,Historical
Rausudake,Japan,Hokkaido-Japan,44.076,145.122,1660,Stratovolcano,Tephrochronology
Rishirizan,Japan,Hokkaido-Japan,45.179,141.242,1721,Stratovolcano,Radiocarbon
Shikaribetsu Group,Japan,Hokkaido-Japan,43.28,143.08,1430,Lava dome,Holocene
Shikotsu,Japan,Hokkaido-Japan,42.688,141.38,1320,Caldera,Historical
Shiretoko-Iozan,Japan,Hokkaido-Japan,44.133,145.161,1562,Stratovolcano,Historical
Taisetsuzan,Japan,Hokkaido-Japan,43.664,142.854,2291,Stratovolcano,Tephrochronology
Tenchozan,Japan,Hokkaido-Japan,44.044,145.086,1046,Crater rows,
Tokachidake,Japan,Hokkaido-Japan,43.418,142.686,2077,Stratovolcano,Historical
Toya,Japan,Hokkaido-Japan,42.544,140.839,733,Stratovolcano,Historical
Yoteizan,Japan,Hokkaido-Japan,42.827,140.812,1888,Stratovolcano,Radiocarbon
"Tigre, Isla del",Honduras,Honduras,13.274,-87.639,774,Stratovolcano,Holocene
Utila Island,Honduras,Honduras,16.1,-86.9,74,Pyroclastic cone,Holocene
"Yojoa, Lago",Honduras,Honduras,14.964,-87.983,1060,Volcanic field,Holocene
"Zacate Grande, Isla",Honduras,Honduras,13.33,-87.63,640,Stratovolcano,Holocene
Abu,Japan,Honshu-Japan,34.5,131.6,641,Shield volcano,Holocene
Adatarayama,Japan,Honshu-Japan,37.647,140.281,1728,Stratovolcano,Historical
Akagisan,Japan,Honshu-Japan,36.56,139.193,1828,Stratovolcano,Historical
Akandanayama,Japan,Honshu-Japan,36.2,137.573,2109,Stratovolcano,
Akita-Komagatake,Japan,Honshu-Japan,39.761,140.799,1637,Stratovolcano,Historical
Akita-Yakeyama,Japan,Honshu-Japan,39.964,140.757,1366,Complex volcano,Historical
Asamayama,Japan,Honshu-Japan,36.406,138.523,2568,Complex volcano,Historical
Azumayama,Japan,Honshu-Japan,37.735,140.244,1949,Stratovolcano,Historical
Bandaisan,Japan,Honshu-Japan,37.601,140.072,1816,Stratovolcano,Historical
Chokaisan,Japan,Honshu-Japan,39.099,140.049,2236,Stratovolcano,Historical
Fujisan,Japan,Honshu-Japan,35.361,138.728,3776,Stratovolcano,Historical
Hachimantai,Japan,Honshu-Japan,39.958,140.854,1613,Stratovolcano,Holocene
Hakkodasan,Japan,Honshu-Japan,40.659,140.877,1585,Stratovolcano,Holocene
Hakoneyama,Japan,Honshu-Japan,35.233,139.021,1438,Complex volcano,Radiocarbon
Hakusan,Japan,Honshu-Japan,36.155,136.771,2702,Stratovolcano,Historical
Harunasan,Japan,Honshu-Japan,36.477,138.851,1449,Stratovolcano,Anthropology
Hijiori,Japan,Honshu-Japan,38.599,140.162,552,Caldera,Radiocarbon
Hiuchigatake,Japan,Honshu-Japan,36.955,139.285,2356,Stratovolcano,Historical
Iwakisan,Japan,Honshu-Japan,40.656,140.303,1625,Stratovolcano,Historical
Iwatesan,Japan,Honshu-Japan,39.853,141.001,2038,Complex volcano,Historical
Izu-Tobu,Japan,Honshu-Japan,34.9,139.098,1406,Pyroclastic cone,Historical
Kurikomayama,Japan,Honshu-Japan,38.961,140.788,1627,Stratovolcano,Historical
Kusatsu-Shiranesan,Japan,Honshu-Japan,36.618,138.528,2165,Stratovolcano,Historical
Megata,Japan,Honshu-Japan,39.95,139.73,291,Maar,Tephrochronology
Midagahara,Japan,Honshu-Japan,36.571,137.59,2621,Stratovolcano,Historical
Myokosan,Japan,Honshu-Japan,36.891,138.114,2454,Stratovolcano,Radiocarbon
Nantaisan,Japan,Honshu-Japan,36.765,139.491,2486,Stratovolcano,Holocene
Naruko,Japan,Honshu-Japan,38.729,140.734,470,Caldera,Historical
Nasudake,Japan,Honshu-Japan,37.125,139.963,1915,Stratovolcano,Historical
Niigata-Yakeyama,Japan,Honshu-Japan,36.921,138.036,2400,Lava dome,Historical
Nikko-Shiranesan,Japan,Honshu-Japan,36.799,139.376,2578,Shield volcano,Historical
Norikuradake,Japan,Honshu-Japan,36.106,137.554,3026,Stratovolcano,Radiocarbon
Numazawa,Japan,Honshu-Japan,37.444,139.566,835,Shield volcano,Radiocarbon
Oki-Dogo,Japan,Honshu-Japan,36.176,133.334,151,Shield volcano,Anthropology
Omanago Group,Japan,Honshu-Japan,36.795,139.507,2341,Lava dome,Holocene
Ontakesan,Japan,Honshu-Japan,35.893,137.48,3067,Complex volcano,Historical
Osorezan,Japan,Honshu-Japan,41.279,141.12,878,Stratovolcano,Historical
Sanbesan,Japan,Honshu-Japan,35.141,132.622,1126,Caldera,Radiocarbon
Shiga,Japan,Honshu-Japan,36.688,138.519,2041,Shield volcano,Holocene
Takaharayama,Japan,Honshu-Japan,36.9,139.777,1795,Stratovolcano,Holocene
Towada,Japan,Honshu-Japan,40.51,140.88,1011,Caldera,Historical
Washiba-Kumonotaira,Japan,Honshu-Japan,36.408,137.594,2924,Shield volcano,Tephrochronology
Yakedake,Japan,Honshu-Japan,36.227,137.587,2455,Stratovolcano,Historical
Yokodake,Japan,Honshu-Japan,36.087,138.32,2480,Stratovolcano,Holocene
Zaozan [Zaosan],Japan,Honshu-Japan,38.144,140.44,1841,Complex volcano,Historical
Theistareykir,Iceland,Iceland,65.883,-16.967,563,Shield volcano,Tephrochronology
Kolbeinsey Ridge,Iceland,Iceland-N of,66.67,-18.5,5,Submarine volcano,Historical
Tjornes Fracture Zone,Iceland,Iceland-N of,66.309,-17.118,-75,Submarine volcano,Historical
Askja,Iceland,Iceland-NE,65.033,-16.783,1080,Stratovolcano,Historical
Bardarbunga,Iceland,Iceland-NE,64.633,-17.516,2000,Stratovolcano,Historical
Fremrinamar,Iceland,Iceland-NE,65.416,-16.666,970,Stratovolcano,Tephrochronology
Grimsvotn,Iceland,Iceland-NE,64.416,-17.316,1719,Caldera,Historical
Heidarspordar,Iceland,Iceland-NE,65.583,-16.817,490,Fissure vent,
Krafla,Iceland,Iceland-NE,65.715,-16.728,800,Caldera,Historical
Kverkfjoll,Iceland,Iceland-NE,64.653,-16.647,1930,Stratovolcano,Historical
Lakagigar,Iceland,Iceland-NE,64.42,-17.33,1725,Caldera,Historical
Snaefell,Iceland,Iceland-NE,64.798,-15.56,1833,Stratovolcano,Holocene
Thordarhyrna,Iceland,Iceland-NE,64.267,-17.617,1650,Stratovolcano,
Trollagigar,Iceland,Iceland-NE,64.43,-18.13,1000,Crater rows,Historical
Tungnafellsjokull,Iceland,Iceland-NE,64.75,-17.916,1523,Stratovolcano,Holocene
Eyjafjallajokull,Iceland,Iceland-S,63.633,-19.633,1651,Stratovolcano,Historical
Hekla,Iceland,Iceland-S,63.983,-19.666,1490,Stratovolcano,Historical
Hromundartindur,Iceland,Iceland-S,64.083,-21.333,550,Stratovolcano,Holocene?
Katla,Iceland,Iceland-S,63.633,-19.083,1490,Subglacial volcano,Historical
Krakagiger,Iceland,Iceland-S,63.98,-19.7,1491,Stratovolcano,Historical
Lambafit,Iceland,Iceland-S,64.08,-19.4,550,Crater rows,Historical
Mundafell,Iceland,Iceland-S,63.98,-19.7,1491,Stratovolcano,Historical
Thordarhyrna,Iceland,Iceland-S,62.27,-17.6,1659,Stratovolcano,Historical
Tindfjallajokull,Iceland,Iceland-S,63.783,-19.716,1464,Stratovolcano,Holocene
Torfajokull,Iceland,Iceland-S,63.892,-19.122,1280,Stratovolcano,Historical
Vestmannaeyjar,Iceland,Iceland-S,63.416,-20.266,283,Submarine volcano,Historical
Esjufjoll,Iceland,Iceland-SE,64.25,-16.583,1620,Stratovolcano,Historical
Oraefajokull,Iceland,Iceland-SE,64,-16.65,2010,Stratovolcano,Historical
Brennisteinsfjoll,Iceland,Iceland-SW,63.933,-21.783,610,Crater rows,Historical
Eldey,Iceland,Iceland-SW,63.733,-23,70,Submarine,
Grimsnes,Iceland,Iceland-SW,64.05,-20.883,200,Crater rows,Tephrochronology
Hengill,Iceland,Iceland-SW,64.083,-21.416,803,Crater rows,Radiocarbon
Hofsjokull,Iceland,Iceland-SW,64.833,-18.766,1765,Subglacial volcano,Holocene
Kristnitokugigar,Iceland,Iceland-SW,63.98,-21.42,301,Crater rows,Historical
Krysuvik-Trolladyngja,Iceland,Iceland-SW,63.917,-22.067,360,Crater rows,Historical
Oddnyjarhnjukur-Langjokull,Iceland,Iceland-SW,64.85,-19.7,1100,Stratovolcano,Radiocarbon
Prestahnukur,Iceland,Iceland-SW,64.583,-20.666,1385,Subglacial volcano,Radiocarbon
Reykjanes,Iceland,Iceland-SW,63.817,-22.717,140,Crater rows,Historical
Reykjaneshryggur,Iceland,Iceland-SW,63.67,-23.33,80,Submarine volcanoes,Historical
Helgrindur,Iceland,Iceland-W,64.866,-23.283,986,Pyroclastic cone,Holocene
Ljosufjoll,Iceland,Iceland-W,64.9,-22.483,1063,Fissure vent,Anthropology
Snaefellsjokull,Iceland,Iceland-W,64.8,-23.783,1446,Stratovolcano,Radiocarbon
"Est, Ile de l'",French Southern & Antarctic Lands,Indian O-S,-46.43,52.2,1090,Stratovolcano,Holocene
Kerguelen Islands,French Southern & Antarctic Lands,Indian O-S,-49.58,69.5,1840,Stratovolcano,Holocene
Heard,Heard I. & McDonald Is.,Indian O-S,-53.106,73.513,2745,Stratovolcano,Historical
Amsterdam Island,Indian Ocean,Indian O-S,-37.83,77.52,881,Stratovolcano,Holocene
"Cochons, Ile Aux",Indian Ocean,Indian O-S,-46.1,50.23,775,Stratovolcano,Holocene
McDonald Islands,Indian Ocean,Indian O-S,-53.03,72.6,230,Complex volcano,Historical
"Possession, Ile de la",Indian Ocean,Indian O-S,-46.42,51.75,934,Stratovolcano,Holocene
Prince Edward Island,Indian Ocean,Indian O-S,-46.63,37.95,672,Shield volcano,Holocene
St. Paul,Indian Ocean,Indian O-S,-38.72,77.53,268,Stratovolcano,Historical
Marion Island,South Africa,Indian O-S,-46.9,37.75,1230,Shield volcano,Historical
"Grille, La",Comoros,Indian O-W,-11.47,43.33,1087,Shield volcano,Holocene
Karthala,Comoros,Indian O-W,-11.75,43.38,2361,Shield volcano,Historical
Mayotte,France,Indian O-W,-12.83,45.17,660,Shield,
"Fournaise, Piton de la",Reunion,Indian O-W,-21.244,55.708,2632,Shield volcano,Historical
Boomerang Seamount,Antarctica,Indian O.-S,-37.721,77.825,-650,Submarine volcano,Historical
Krakatau,Indonesia,Indonesia,-6.102,105.423,155,Caldera,Historical
Bazman,Iran,Iran,28.07,60,3490,Stratovolcano,Fumarolic
Damavand,Iran,Iran,35.951,52.109,5670,Stratovolcano,Holocene
Kuh-e Nader,Iran,Iran,28.17,60.67,1500,Volcanic field,Holocene
Sabalan,Iran,Iran,38.268,47.835,4784,Stratovolcano,Holocene
Sahand,Iran,Iran,37.75,46.43,3707,Stratovolcano,Holocene
Taftan,Iran,Iran,28.6,61.13,3940,Stratovolcano,Holocene
Campi Flegrei,Italy,Italy,40.827,14.139,458,Caldera,Historical
Campi Flegrei del Mar di Sicilia,Italy,Italy,37.1,12.7,-8,Submarine volcanoes,Historical
Colli Albani,Italy,Italy,41.73,12.7,949,Caldera,Holocene
Etna,Italy,Italy,37.748,14.999,3357,Stratovolcano,Historical
Ischia,Italy,Italy,40.73,13.897,789,Complex volcano,Historical
Larderello,Italy,Italy,43.25,10.87,500,Explosion crater,Historical
Lipari,Italy,Italy,38.49,14.933,590,Stratovolcanoes,Radiocarbon
Palinuro,Italy,Italy,39.48,14.83,-70,Submarine volcano,Radiocarbon
Panarea,Italy,Italy,38.638,15.064,399,Stratovolcano,Historical
Pantelleria,Italy,Italy,36.77,12.02,836,Shield volcano,Historical
Stromboli,Italy,Italy,38.789,15.213,924,Stratovolcano,Historical
Vesuvius,Italy,Italy,40.821,14.426,1281,Complex volcano,Historical
Vulcano,Italy,Italy,38.404,14.962,500,Stratovolcano,Historical
Vulsini,Italy,Italy,42.6,11.93,800,Caldera,Historical
Aogashima,Japan,Izu Is-Japan,32.458,139.759,423,Stratovolcano,Historical
Doyo Seamount,Japan,Izu Is-Japan,27.68,140.8,-590,Submarine volcano,Fumarolic
Hachijojima,Japan,Izu Is-Japan,33.137,139.766,854,Stratovolcano,Historical
Izu-Oshima,Japan,Izu Is-Japan,34.724,139.394,746,Stratovolcano,Historical
Izu-Torishima,Japan,Izu Is-Japan,30.484,140.303,394,Stratovolcano,Historical
Kita-Bayonnaise,Japan,Izu Is-Japan,32.1,139.85,-360,Submarine volcano,Holocene
Kozushima,Japan,Izu Is-Japan,34.219,139.153,572,Lava dome,Historical
Kurose Hole,Japan,Izu Is-Japan,33.4,139.68,-107,Submarine volcano,Holocene?
Mikurajima,Japan,Izu Is-Japan,33.874,139.602,851,Submarine volcano,Holocene
Miyakejima,Japan,Izu Is-Japan,34.094,139.526,775,Stratovolcano,Historical
Mokuyo Seamount,Japan,Izu Is-Japan,28.327,140.572,-933,Submarine volcano,Fumarolic
Myojinsho,Japan,Izu Is-Japan,31.888,139.918,11,Submarine volcano,Historical
Niijima,Japan,Izu Is-Japan,34.397,139.27,432,Lava dome,Historical
Sofugan,Japan,Izu Is-Japan,29.794,140.342,99,Submarine volcano,Uncertain
Sumisujima,Japan,Izu Is-Japan,31.44,140.051,136,Submarine volcano,Historical
Toshima,Japan,Izu Is-Japan,34.52,139.279,508,Stratovolcano,Holocene
Maruyama,Japan,Japan,43.418,143.031,2013,Lava dome,Historical
Arjuno-Welirang,Indonesia,Java,-7.733,112.575,3343,Stratovolcano,Historical
Baluran,Indonesia,Java,-7.85,114.37,1247,Stratovolcano,Holocene
Ciremai,Indonesia,Java,-6.895,108.408,3039,Stratovolcano,Historical
Dieng Volcanic Complex,Indonesia,Java,-7.2,109.879,2565,Complex volcano,Historical
Galunggung,Indonesia,Java,-7.25,108.058,2168,Stratovolcano,Historical
Gede-Pangrango,Indonesia,Java,-6.786,106.983,3026,Stratovolcano,Historical
Guntur,Indonesia,Java,-7.143,107.841,2251,Complex volcano,Historical
Ijen,Indonesia,Java,-8.058,114.242,2769,Stratovolcano,Historical
Iyang-Argapura,Indonesia,Java,-7.97,113.57,3088,Complex volcano,Holocene
"Karaha, Kawah",Indonesia,Java,-7.12,108.08,1155,Fumarole field,Fumarolic
Karang,Indonesia,Java,-6.268,106.05,1768,Stratovolcano,Holocene
Kawi-Butak,Indonesia,Java,-7.92,112.45,2651,Stratovolcano,Holocene
Kelud,Indonesia,Java,-7.935,112.314,1730,Stratovolcano,Historical
Kendang,Indonesia,Java,-7.245,107.709,2594,Stratovolcano,Holocene
Kiaraberes-Gagak,Indonesia,Java,-6.73,106.65,1511,Stratovolcano,Historical
Lamongan,Indonesia,Java,-7.981,113.341,1641,Stratovolcano,Historical
Lawu,Indonesia,Java,-7.625,111.192,3265,Stratovolcano,Holocene
Lurus,Indonesia,Java,-7.7,113.58,539,Complex volcano,Holocene
Malabar,Indonesia,Java,-7.13,107.65,2343,Stratovolcano,Holocene
Malang Plain,Indonesia,Java,-8.02,112.68,680,Maar,Holocene
Merapi,Indonesia,Java,-7.54,110.446,2910,Stratovolcano,Historical
Merbabu,Indonesia,Java,-7.454,110.44,3118,Stratovolcano,Historical
Muria,Indonesia,Java,-6.62,110.88,1625,Stratovolcano,Holocene
Papandayan,Indonesia,Java,-7.32,107.73,2665,Stratovolcano,Historical
Patuha,Indonesia,Java,-7.162,107.4,2422,Stratovolcano,Holocene
Penanggungan,Indonesia,Java,-7.616,112.62,1631,Stratovolcano,Holocene
Perbakti-Gagak,Indonesia,Java,-6.75,106.675,1726,Stratovolcano,Fumarolic
Pulosari,Indonesia,Java,-6.343,105.978,1324,Caldera,Holocene
Raung,Indonesia,Java,-8.119,114.056,3260,Stratovolcano,Historical
Salak,Indonesia,Java,-6.716,106.733,2218,Stratovolcano,Historical
Semeru,Indonesia,Java,-8.108,112.922,3657,Stratovolcano,Historical
Slamet,Indonesia,Java,-7.242,109.208,3428,Stratovolcano,Historical
Sumbing,Indonesia,Java,-7.384,110.07,3371,Stratovolcano,Historical
Sundoro,Indonesia,Java,-7.302,109.996,3147,Stratovolcano,Historical
Talagabodas,Indonesia,Java,-7.208,108.07,2201,Stratovolcano,Fumarolic
Tampomas,Indonesia,Java,-6.77,107.95,1684,Stratovolcano,Holocene
Tangkuban Parahu,Indonesia,Java,-6.77,107.6,2084,Stratovolcano,Historical
Telomoyo,Indonesia,Java,-7.362,110.4,1864,Stratovolcano,Holocene
Tengger Caldera,Indonesia,Java,-7.942,112.95,2329,Stratovolcano,Historical
Ungaran,Indonesia,Java,-7.18,110.33,2050,Stratovolcano,Holocene
Wayang-Windu,Indonesia,Java,-7.208,107.63,2182,Lava dome,Fumarolic
Wilis,Indonesia,Java,-7.808,111.758,2563,Stratovolcano,Holocene
Akademia Nauk,Russia,Kamchatka,53.98,159.45,1180,Stratovolcanoes,Historical
Akhtang,Russia,Kamchatka,55.43,158.65,1956,Shield volcano,Holocene
Alney-Chashakondzha,Russia,Kamchatka,56.656,159.647,2570,Stratovolcano,Holocene
Alngey,Russia,Kamchatka,57.702,160.418,1822,Stratovolcano,Holocene
Anaun,Russia,Kamchatka,56.32,158.83,1828,Stratovolcano,Holocene
Asacha,Russia,Kamchatka,52.355,157.827,1910,Pyroclastic cone,Holocene
Avachinsky,Russia,Kamchatka,53.256,158.836,2717,Stratovolcano,Historical
Bakening,Russia,Kamchatka,53.905,158.07,2278,Stratovolcano,Historical
Barkhatnaya Sopka,Russia,Kamchatka,52.802,158.24,874,Lava dome,Tephrochronology
Belenkaya,Russia,Kamchatka,51.75,157.27,892,Stratovolcano,Holocene
Bely,Russia,Kamchatka,57.88,160.53,2080,Shield volcano,Holocene
Bezymianny,Russia,Kamchatka,55.972,160.595,2882,Stratovolcano,Historical
Bliznets,Russia,Kamchatka,56.97,159.78,1244,Stratovolcano,Holocene
Bliznetsy,Russia,Kamchatka,57.35,161.37,265,Lava cone,Radiocarbon
Bolshe-Bannaya,Russia,Kamchatka,52.9,157.78,1200,Lava dome,Holocene
Bolshoi Payalpan,Russia,Kamchatka,55.88,157.78,1906,Shield volcano,Holocene
Bolshoi Semiachik,Russia,Kamchatka,54.32,160.02,1720,Stratovolcano,Radiocarbon
Bolshoi-Kekuknaysky,Russia,Kamchatka,56.483,157.917,1401,Shield volcano,Holocene
Cherny,Russia,Kamchatka,56.82,159.67,1778,Stratovolcano,Holocene
Cherpuk Group,Russia,Kamchatka,55.55,157.47,1868,Pyroclastic cones,Radiocarbon
Diky Greben,Russia,Kamchatka,51.452,156.978,1040,Lava dome,Radiocarbon
Dzenzursky,Russia,Kamchatka,53.637,158.922,2285,Compound volcano,Holocene
Eggella,Russia,Kamchatka,56.57,158.52,1046,Shield volcano,Holocene
Elovsky,Russia,Kamchatka,57.55,160.53,1381,Shield volcano,Holocene
Fedotych,Russia,Kamchatka,57.13,160.4,965,Shield volcano,Holocene
Gamchen,Russia,Kamchatka,54.974,160.703,2539,Complex volcano,Holocene
Geodesistoy,Russia,Kamchatka,56.33,158.67,1170,Shield volcano,Holocene
Golaya,Russia,Kamchatka,52.263,157.787,858,Shield volcano,Holocene
Gorely,Russia,Kamchatka,52.559,158.03,1799,Caldera,Historical
Gorny Institute,Russia,Kamchatka,57.33,160.2,2125,Stratovolcano,Holocene
Ichinsky,Russia,Kamchatka,55.678,157.718,3596,Stratovolcano,Holocene
Iettunup,Russia,Kamchatka,58.4,161.08,1340,Shield volcano,Holocene
Iktunup,Russia,Kamchatka,58.08,160.77,2300,Shield volcano,Holocene
Iliinsky,Russia,Kamchatka,51.498,157.203,1555,Stratovolcano,Historical
Kaileney,Russia,Kamchatka,57.8,160.67,1582,Shield volcano,Holocene
Kambalny,Russia,Kamchatka,51.306,156.875,2116,Stratovolcano,Holocene
Kamen,Russia,Kamchatka,56.02,160.593,4585,Stratovolcano,Holocene
Karymsky,Russia,Kamchatka,54.049,159.443,1513,Stratovolcano,Historical
Kebeney,Russia,Kamchatka,57.1,159.93,1527,Shield volcano,Holocene
Kekurny,Russia,Kamchatka,56.4,158.85,1377,Shield volcano,Holocene
Kell,Russia,Kamchatka,51.65,157.35,900,Stratovolcano,Holocene
Khangar,Russia,Kamchatka,54.761,157.407,1967,Stratovolcano,Radiocarbon
Khodutka,Russia,Kamchatka,52.062,157.711,2039,Stratovolcano,Radiocarbon
Kikhpinych,Russia,Kamchatka,54.489,160.251,1515,Stratovolcano,Radiocarbon
Kinenin,Russia,Kamchatka,57.35,160.97,583,Maar,Radiocarbon
Kizimen,Russia,Kamchatka,55.131,160.32,2334,Stratovolcano,Historical
Klyuchevskoy,Russia,Kamchatka,56.056,160.642,4754,Stratovolcano,Historical
Komarov,Russia,Kamchatka,55.033,160.725,2065,Stratovolcano,Holocene
Koryaksky,Russia,Kamchatka,53.321,158.712,3430,Stratovolcano,Historical
Koshelev,Russia,Kamchatka,51.356,156.753,1822,Stratovolcano,Historical
Kostakan,Russia,Kamchatka,53.83,158.05,1150,Stratovolcano,Tephrochronology
Kozyrevsky,Russia,Kamchatka,55.58,158.38,2016,Shield volcano,Holocene
Krainy,Russia,Kamchatka,56.37,159.03,1554,Shield volcano,Holocene
Krasheninnikov,Russia,Kamchatka,54.596,160.27,1816,Caldera,Radiocarbon
Kronotsky,Russia,Kamchatka,54.753,160.533,3482,Stratovolcano,Historical
Ksudach,Russia,Kamchatka,51.844,157.572,1079,Stratovolcano,Historical
Kulkev,Russia,Kamchatka,56.37,158.37,915,Shield volcano,Holocene
Kurile Lake,Russia,Kamchatka,51.45,157.12,81,Caldera,Radiocarbon
Leutongey,Russia,Kamchatka,57.306,159.827,1318,Shield volcano,Holocene
Maly Payalpan,Russia,Kamchatka,55.82,157.98,1802,Shield volcano,Holocene
Maly Semyachik,Russia,Kamchatka,54.135,159.674,1527,Caldera,Historical
Mashkovtsev,Russia,Kamchatka,51.1,156.72,503,Stratovolcano,Holocene
Mezhdusopochny,Russia,Kamchatka,57.47,160.25,1641,Shield volcano,Holocene
Mutnovsky,Russia,Kamchatka,52.449,158.196,2288,Complex volcano,Historical
Nylgimelkin,Russia,Kamchatka,57.97,160.65,1764,Shield volcano,Holocene
Olkoviy Volcanic Group,Russia,Kamchatka,52.02,157.53,681,Volcanic field,Holocene
Opala,Russia,Kamchatka,52.543,157.339,2439,Caldera,Radiocarbon
Ostanets,Russia,Kamchatka,52.146,157.322,719,Shield volcano,Holocene
Ostry,Russia,Kamchatka,58.18,160.82,2552,Stratovolcano,Holocene
Otdelniy,Russia,Kamchatka,52.221,157.435,814,Shield volcano,Holocene
Ozernoy,Russia,Kamchatka,51.88,157.38,562,Shield volcano,Holocene
Piratkovsky,Russia,Kamchatka,52.113,157.849,1322,Stratovolcano,Holocene
Plosky,Russia,Kamchatka,57.83,160.25,1255,Shield volcano,Holocene
Plosky,Russia,Kamchatka,55.2,158.47,1236,Shield volcano,Holocene
Pogranychny,Russia,Kamchatka,56.85,159.8,1427,Shield volcano,Holocene
Romanovka,Russia,Kamchatka,55.65,158.8,1442,Stratovolcano,Holocene
Schmidt,Russia,Kamchatka,54.92,160.63,2020,Shield volcano,Holocene
Sedanka Lava Field,Russia,Kamchatka,57.317,160.067,1399,Shield volcano,Holocene
Severny,Russia,Kamchatka,58.28,160.87,1936,Shield volcano,Holocene
Sheveluch,Russia,Kamchatka,56.653,161.36,3283,Stratovolcano,Historical
Shisheika,Russia,Kamchatka,57.153,161.09,355,Lava dome,Radiocarbon
Shishel,Russia,Kamchatka,57.45,160.37,2525,Shield volcano,Holocene
Snegovoy,Russia,Kamchatka,58.2,160.97,2169,Shield volcano,Holocene
Snezhniy,Russia,Kamchatka,58.02,160.8,2169,Shield volcano,Holocene
Spokoiny,Russia,Kamchatka,58.13,160.82,2171,Stratovolcano,Radiocarbon
Taunshits,Russia,Kamchatka,54.528,159.804,2301,Stratovolcano,Radiocarbon
Terpuk,Russia,Kamchatka,57.2,159.83,765,Shield volcano,Radiocarbon
Titila,Russia,Kamchatka,57.406,160.108,1523,Shield volcano,Holocene
Tolbachik,Russia,Kamchatka,55.832,160.326,3611,Shield volcano,Historical
Tolmachev Dol,Russia,Kamchatka,52.63,157.58,1021,Cinder cone,Holocene
Tuzovsky,Russia,Kamchatka,57.32,159.967,1516,Shield volcano,Holocene
Udina,Russia,Kamchatka,55.758,160.527,2886,Stratovolcano,Holocene
Uka,Russia,Kamchatka,57.706,160.59,1607,Shield volcano,Holocene
Uksichan,Russia,Kamchatka,56.08,158.38,1692,Shield volcano,Holocene
Ushkovsky,Russia,Kamchatka,56.113,160.509,3943,Compound volcano,Historical
Uzon,Russia,Kamchatka,54.5,159.97,1617,Caldera,Radiocarbon
Veer,Russia,Kamchatka,53.75,158.45,520,Stratovolcano,Radiocarbon
Verkhovoy,Russia,Kamchatka,56.52,159.53,1400,Shield volcano,Holocene
Vilyuchinsky,Russia,Kamchatka,52.7,158.28,2173,Stratovolcano,Tephrochronology
Visokiy,Russia,Kamchatka,52.43,157.93,1234,Shield volcano,Holocene
Voyampolsky,Russia,Kamchatka,58.374,160.631,1103,Shield volcano,Holocene
Vysoky,Russia,Kamchatka,55.064,160.765,2129,Stratovolcano,Holocene
Yavinsky,Russia,Kamchatka,51.533,156.629,646,Cinder cone,Holocene
Zaozerny,Russia,Kamchatka,56.88,159.95,1349,Shield volcano,Holocene
Zavaritsky,Russia,Kamchatka,53.905,158.385,1567,Cinder cones,Radiocarbon
Zheltovsky,Russia,Kamchatka,51.577,157.328,1926,Stratovolcano,Historical
Zhupanovsky,Russia,Kamchatka,53.589,159.15,2899,Compound volcano,Historical
Zimina,Russia,Kamchatka,55.862,160.603,3057,Stratovolcano,Holocene
Piip,Russia,Kamchatka-E of,55.42,167.33,-300,Submarine volcano,Tephrochronology
Brimstone Island,New Zealand,Kermadec Is,-30.23,-178.92,-2000,Submarine volcano,Uncertain
Curtis Island,New Zealand,Kermadec Is,-30.543,-178.556,47,Submarine volcano,Uncertain
Giggenbach,New Zealand,Kermadec Is,-30.036,-178.712,-65,Submarine volcano,Fumarolic
Macauley,New Zealand,Kermadec Is,-30.21,-178.475,238,Caldera,Holocene
Monowai,New Zealand,Kermadec Is,-25.887,-177.188,-132,Submarine volcano,Historical
Raoul Island,New Zealand,Kermadec Is,-29.27,-177.92,516,Stratovolcano,Historical
Unnamed,New Zealand,Kermadec Is,-29.18,-177.87,-560,Submarine volcano,Historical
Wright,New Zealand,Kermadec Is,-31.85,-179.18,-900,Submarine volcanoes,Fumarolic
Ch'uga-ryong,North Korea,Korea,38.33,127.33,452,Shield volcano,Holocene
Halla,South Korea,Korea,33.361,126.53,1919,Shield volcano,Historical
Ulreung,South Korea,Korea,37.5,130.87,984,Stratovolcano,Radiocarbon
Alaid,Russia,Kuril Is,50.861,155.565,2285,Stratovolcano,Historical
Berutarubesan [Berutarube],Russia,Kuril Is,44.462,146.932,1221,Stratovolcano,Holocene
Chachadake [Tiatia],Russia,Kuril Is,44.353,146.252,1822,Stratovolcano,Historical
Chikurachki,Russia,Kuril Is,50.324,155.461,1781,Stratovolcano,Historical
Chirinkotan,Russia,Kuril Is,48.98,153.48,724,Stratovolcano,Historical
Chirippusan [Chirip],Russia,Kuril Is,45.338,147.92,1587,Stratovolcano,Historical
Chirpoi,Russia,Kuril Is,46.532,150.871,742,Caldera,Historical
Ebeko,Russia,Kuril Is,50.686,156.014,1103,Somma volcano,Historical
Ekarma,Russia,Kuril Is,48.958,153.93,1170,Stratovolcano,Historical
Etorofu-Atosanupuri [Atosanupuri],Russia,Kuril Is,44.808,147.131,1206,Stratovolcano,Historical
Etorofu-Yakeyama [Grozny Group],Russia,Kuril Is,45.012,147.871,1158,Complex volcano,Historical
Fuss Peak,Russia,Kuril Is,50.267,155.246,1742,Stratovolcano,Historical
Goriaschaia Sopka,Russia,Kuril Is,46.83,151.75,891,Stratovolcano,Historical
Hitokappu Volcano Group,Russia,Kuril Is,44.857,147.403,1610,Stratovolcano,Holocene
Ivao Group,Russia,Kuril Is,45.77,149.68,1426,Cinder cone,Holocene
Karpinsky Group,Russia,Kuril Is,50.148,155.373,1326,Cone,Historical
Ketoi,Russia,Kuril Is,47.35,152.475,1172,Stratovolcano,Historical
Kharimkotan,Russia,Kuril Is,49.12,154.508,1145,Stratovolcano,Historical
Kolokol Group,Russia,Kuril Is,46.042,150.083,1328,Somma volcano,Historical
Lomonosov Group,Russia,Kuril Is,50.25,155.43,1681,Cinder cone,Holocene
Milna,Russia,Kuril Is,46.815,151.786,1504,Somma volcano,Holocene
Moekeshiwan [Lvinaya Past],Russia,Kuril Is,44.608,146.994,528,Stratovolcano,Radiocarbon
Moyorodake [Medvezhia],Russia,Kuril Is,45.389,148.838,1124,Somma volcano,Historical
Nemo Peak,Russia,Kuril Is,49.57,154.808,1018,Caldera,Historical
Odamoisan [Tebenkov],Russia,Kuril Is,45.028,147.918,1208,Stratovolcano,
Prevo Peak,Russia,Kuril Is,47.02,152.12,1360,Stratovolcano,Historical
Raikoke,Russia,Kuril Is,48.292,153.25,551,Stratovolcano,Historical
Rakkibetsudake [Demon],Russia,Kuril Is,45.5,148.85,1205,Stratovolcano,Holocene
Rasshua,Russia,Kuril Is,47.77,153.02,956,Stratovolcano,Historical
Raususan [Mendeleev],Russia,Kuril Is,43.979,145.733,882,Stratovolcano,Historical
Rucharuyama [Golets-Tornyi Group],Russia,Kuril Is,45.25,148.35,442,Pyroclastic cone,Holocene
Rudakov,Russia,Kuril Is,45.874,149.819,532,Stratovolcano,Holocene
Ruruidake [Smirnov],Russia,Kuril Is,44.454,146.139,1486,Stratovolcano,Holocene
Sarychev Peak,Russia,Kuril Is,48.092,153.2,1496,Stratovolcano,Historical
Sashiusudake [Baransky],Russia,Kuril Is,45.1,148.019,1125,Stratovolcano,Historical
Shirinki,Russia,Kuril Is,50.2,154.98,761,Stratovolcano,Holocene
Sinarka,Russia,Kuril Is,48.873,154.182,911,Stratovolcano,Historical
Srednii,Russia,Kuril Is,47.6,152.92,36,Submarine volcano,Holocene
Tao-Rusyr Caldera,Russia,Kuril Is,49.34,154.725,1272,Stratovolcano,Historical
Tomariyama [Golovnin],Russia,Kuril Is,43.844,145.504,535,Caldera,Historical
Tri Sestry,Russia,Kuril Is,45.93,149.92,998,Stratovolcano,Holocene
Uratman,Russia,Kuril Is,47.12,152.25,678,Somma volcano,Holocene
Ushishur,Russia,Kuril Is,47.52,152.8,401,Caldera,Historical
Vernadskii Ridge,Russia,Kuril Is,50.55,155.97,1183,Cinder cone,Holocene
Zavaritzki Caldera,Russia,Kuril Is,46.925,151.95,624,Caldera,Historical
Aira,Japan,Kyushu-Japan,31.593,130.657,1117,Stratovolcano,Historical
Asosan,Japan,Kyushu-Japan,32.884,131.104,1592,Caldera,Historical
Ata,Japan,Kyushu-Japan,31.22,130.57,924,Caldera,Historical
Fukue,Japan,Kyushu-Japan,32.657,128.849,315,Shield volcanoes,Tephrochronology
Kirishimayama,Japan,Kyushu-Japan,31.934,130.862,1700,Shield volcano,Historical
Kujusan,Japan,Kyushu-Japan,33.086,131.249,1791,Stratovolcano,Historical
Unzendake,Japan,Kyushu-Japan,32.761,130.299,1483,Complex volcano,Historical
Yonemaru-Sumiyoshiike,Japan,Kyushu-Japan,31.771,130.592,40,Maar,Radiocarbon
Yufu-Tsurumi,Japan,Kyushu-Japan,33.282,131.39,1584,Lava dome,Historical
Agung,Indonesia,Lesser Sunda Is,-8.343,115.508,2997,Stratovolcano,Historical
Batur,Indonesia,Lesser Sunda Is,-8.242,115.375,1717,Caldera,Historical
Buyan-Bratan,Indonesia,Lesser Sunda Is,-8.283,115.133,2244,Caldera,Holocene
Ebulobo,Indonesia,Lesser Sunda Is,-8.817,121.191,2096,Stratovolcano,Historical
Egon,Indonesia,Lesser Sunda Is,-8.676,122.455,1661,Stratovolcano,Historical
Iliboleng,Indonesia,Lesser Sunda Is,-8.342,123.258,1659,Stratovolcano,Historical
Ililabalekan,Indonesia,Lesser Sunda Is,-8.55,123.38,1018,Stratovolcano,Fumarolic
Ilimuda,Indonesia,Lesser Sunda Is,-8.479,122.761,881,Stratovolcano,Fumarolic
Iliwerung,Indonesia,Lesser Sunda Is,-8.532,123.573,583,Complex volcano,Historical
Inielika,Indonesia,Lesser Sunda Is,-8.73,120.98,1559,Complex volcano,Historical
Inierie,Indonesia,Lesser Sunda Is,-8.875,120.95,2245,Stratovolcano,Fumarolic
Iya,Indonesia,Lesser Sunda Is,-8.891,121.641,618,Stratovolcano,Historical
Kelimutu,Indonesia,Lesser Sunda Is,-8.77,121.82,1639,Complex volcano,Historical
Leroboleng,Indonesia,Lesser Sunda Is,-8.365,122.833,1095,Complex volcano,Historical
Lewotobi,Indonesia,Lesser Sunda Is,-8.542,122.775,1703,Stratovolcano,Historical
Lewotobi Perempuan,Indonesia,Lesser Sunda Is,-8.575,122.78,1703,Stratovolcano,Historical
Lewotolok,Indonesia,Lesser Sunda Is,-8.274,123.508,1431,Stratovolcano,Historical
Ndete Napu,Indonesia,Lesser Sunda Is,-8.72,121.78,750,Fumarole field,Fumarolic
Paluweh,Indonesia,Lesser Sunda Is,-8.32,121.708,875,Stratovolcano,Historical
Poco Leok,Indonesia,Lesser Sunda Is,-8.68,120.48,1675,Unknown,Fumarolic
Ranakah,Indonesia,Lesser Sunda Is,-8.62,120.52,2350,Lava dome,Historical
Rinjani,Indonesia,Lesser Sunda Is,-8.42,116.47,3726,Stratovolcano,Historical
Sangeang Api,Indonesia,Lesser Sunda Is,-8.2,119.07,1912,Complex volcano,Historical
"Sano, Wai",Indonesia,Lesser Sunda Is,-8.724,119.986,1319,Caldera,Holocene
Sirung,Indonesia,Lesser Sunda Is,-8.508,124.13,862,Complex volcano,Historical
Sukaria Caldera,Indonesia,Lesser Sunda Is,-8.792,121.77,1500,Caldera,Fumarolic
Tambora,Indonesia,Lesser Sunda Is,-8.25,118,2850,Stratovolcano,Historical
"Tara, Batu",Indonesia,Lesser Sunda Is,-7.791,123.585,633,Stratovolcano,Historical
Yersey,Indonesia,Lesser Sunda Is,-7.53,123.95,-3800,Submarine volcano,Uncertain
Babuyan Claro,Philippines,Luzon-N of,19.524,121.95,1064,Stratovolcano,Historical
Camiguin de Babuyanes,Philippines,Luzon-N of,18.83,121.86,712,Stratovolcano,Historical
Didicas,Philippines,Luzon-N of,19.077,122.202,228,Compound volcano,Historical
Iraya,Philippines,Luzon-N of,20.469,122.01,1009,Stratovolcano,Historical
Smith Volcano,Philippines,Luzon-N of,19.523,121.94,2090,Stratovolcano,Historical
Unnamed,Philippines,Luzon-N of,20.33,121.75,-24,Submarine volcano,Historical
Ambalatungan Group,Philippines,Luzon-Philippines,17.32,121.1,2329,Compound volcano,Fumarolic
Amorong,Philippines,Luzon-Philippines,15.828,120.805,376,Unknown,Fumarolic
Arayat,Philippines,Luzon-Philippines,15.2,120.742,1026,Stratovolcano,Holocene
Banahaw,Philippines,Luzon-Philippines,14.07,121.48,2158,Complex volcano,Holocene
Bulusan,Philippines,Luzon-Philippines,12.769,124.056,1535,Stratovolcano,Historical
Cagua,Philippines,Luzon-Philippines,18.222,122.123,1133,Stratovolcano,Holocene
Iriga,Philippines,Luzon-Philippines,13.458,123.451,1138,Stratovolcano,Historical
Isarog,Philippines,Luzon-Philippines,13.658,123.38,1966,Stratovolcano,Holocene
Laguna Caldera,Philippines,Luzon-Philippines,14.42,121.27,743,Fumarole field,Fumarolic
Malinao,Philippines,Luzon-Philippines,13.422,123.597,1548,Stratovolcano,Fumarolic
Malindig,Philippines,Luzon-Philippines,13.24,122.018,1157,Stratovolcano,Hot Springs
Mariveles,Philippines,Luzon-Philippines,14.527,120.482,1388,Stratovolcano,Radiocarbon
Masaraga,Philippines,Luzon-Philippines,13.32,123.6,1328,Stratovolcano,Holocene
Mayon,Philippines,Luzon-Philippines,13.257,123.685,2462,Stratovolcano,Historical
Natib,Philippines,Luzon-Philippines,14.72,120.4,1253,Stratovolcano,Holocene
Patoc,Philippines,Luzon-Philippines,17.147,120.98,1865,Stratovolcano,Fumarolic
Pinatubo,Philippines,Luzon-Philippines,15.13,120.35,1486,Stratovolcano,Historical
Pocdol Mountains,Philippines,Luzon-Philippines,13.05,123.958,1102,Compound volcano,Holocene
San Pablo Volcanic Field,Philippines,Luzon-Philippines,14.12,121.3,1090,Stratovolcano,Holocene
Santo Tomas,Philippines,Luzon-Philippines,16.33,120.55,2260,Stratovolcano,Uncertain
Taal,Philippines,Luzon-Philippines,14.002,120.993,311,Stratovolcano,Historical
Ambre-Bobaomby,Madagascar,Madagascar,-12.6,49.15,1475,Volcanic field,Holocene
Ankaizina Field,Madagascar,Madagascar,-14.3,48.67,2878,Cinder cone,Holocene
Itasy Volcanic Field,Madagascar,Madagascar,-19.033,46.7,1800,Scoria cone,Radiocarbon
Nosy-Be,Madagascar,Madagascar,-13.32,48.48,214,Cinder cone,Holocene
Vakinankaratra,Madagascar,Madagascar,-19.85,46.942,2644,Cinder cone,Holocene
Agrigan,United States,Mariana Is-C Pacific,18.77,145.67,965,Stratovolcano,Historical
Ahyi,United States,Mariana Is-C Pacific,20.42,145.03,-75,Submarine volcano,Uncertain
Alamagan,United States,Mariana Is-C Pacific,17.6,145.83,744,Stratovolcano,Radiocarbon
Anatahan,United States,Mariana Is-C Pacific,16.35,145.67,790,Stratovolcano,Holocene
Asuncion,United States,Mariana Is-C Pacific,19.671,145.406,857,Stratovolcano,Historical
East Diamante,United States,Mariana Is-C Pacific,15.93,145.67,-127,Submarine volcano,Historical
Esmeralda Bank,United States,Mariana Is-C Pacific,15,145.25,-43,Submarine volcano,Fumarolic
Farallon de Pajaros,United States,Mariana Is-C Pacific,20.546,144.893,337,Stratovolcano,Historical
Forecast Seamount,United States,Mariana Is-C Pacific,13.4,143.92,-1456,Submarine volcano,Fumarolic
Guguan,United States,Mariana Is-C Pacific,17.307,145.845,287,Stratovolcano,Historical
Kasuga 2,United States,Mariana Is-C Pacific,21.6,143.637,-274,Submarine volcano,Uncertain
Mariana Back-Arc Segment at 15.5°N,United States,Mariana Is-C Pacific,15.406,144.506,-4100,Submarine,Uncertain
Maug Islands,United States,Mariana Is-C Pacific,20.02,145.22,227,Stratovolcano,Fumarolic
NW Eifuku,United States,Mariana Is-C Pacific,21.485,144.043,-1535,Submarine volcano,Uncertain
NW Rota-1,United States,Mariana Is-C Pacific,14.601,144.775,-517,Submarine volcano,Historical
Pagan,United States,Mariana Is-C Pacific,18.13,145.8,570,Stratovolcano,Historical
Ruby,United States,Mariana Is-C Pacific,15.62,145.57,-230,Submarine volcano,Historical
Sarigan,United States,Mariana Is-C Pacific,16.708,145.78,538,Stratovolcano,Holocene
Seamount X,United States,Mariana Is-C Pacific,13.25,144.02,-1230,Submarine volcano,Fumarolic
South Sarigan Seamount,United States,Mariana Is-C Pacific,16.58,145.78,-184,Submarine,Uncertain
Supply Reef,United States,Mariana Is-C Pacific,20.13,145.1,-8,Submarine volcano,Hydrophonic
"Atlixcos, Los",Mexico,Mexico,19.81,-96.527,775,Shield volcano,Holocene
Ceboruco,Mexico,Mexico,21.125,-104.508,2280,Stratovolcano,Historical
Chichinautzin,Mexico,Mexico,19.08,-99.13,3930,Volcanic field,Radiocarbon
"Chichon, El",Mexico,Mexico,17.36,-93.228,1150,Tuff cone,Historical
Cofre de Perote,Mexico,Mexico,19.492,-97.15,4282,Shield volcano,Radiocarbon
Colima,Mexico,Mexico,19.514,-103.62,3850,Stratovolcano,Historical
Comondu-La Purisima,Mexico,Mexico,26,-111.92,780,Volcanic field,Holocene
Coronado,Mexico,Mexico,29.08,-113.513,440,Stratovolcano,Fumarolic
"Cumbres,  Las",Mexico,Mexico,19.15,-97.27,3940,Stratovolcano,Radiocarbon
Durango Volcanic Field,Mexico,Mexico,24.15,-104.45,2075,Cinder cone,Holocene
"Gloria, La",Mexico,Mexico,19.33,-97.25,3500,Volcanic field,Holocene
Guadalupe,Mexico,Mexico,29.07,-118.28,1100,Shield volcano,Holocene
"Humeros, Los",Mexico,Mexico,19.68,-97.45,3150,Caldera,Holocene
"Isabel, Isla",Mexico,Mexico,21.848,-105.886,95,Stratovolcano,Holocene
Iztaccihuatl,Mexico,Mexico,19.179,-98.642,5230,Stratovolcano,Holocene
Jaraguay Volcanic Field,Mexico,Mexico,29.33,-114.5,960,Cinder cone,Holocene
Jocotitlan,Mexico,Mexico,19.73,-99.758,3900,Stratovolcano,Radiocarbon
"Malinche, La",Mexico,Mexico,19.231,-98.032,4461,Stratovolcano,Radiocarbon
Mascota Volcanic Field,Mexico,Mexico,20.567,-104.817,2525,Shield volcano,Holocene
Michoacan-Guanajuato,Mexico,Mexico,19.85,-101.75,3860,Cinder cone,Historical
Naolinco Volcanic Field,Mexico,Mexico,19.67,-96.75,2000,Pyroclastic cone,Holocene
"Orizaba, Pico de",Mexico,Mexico,19.03,-97.27,5564,Stratovolcano,Historical
Papayo,Mexico,Mexico,19.308,-98.7,3600,Lava dome,Holocene
Paricutin Volcanic Field,Mexico,Mexico,19.48,-102.25,3860,Cinder cone,Historical
Pinacate,Mexico,Mexico,31.85,-113.5,1183,Cinder cone,Holocene
Popocatepetl,Mexico,Mexico,19.023,-98.622,5393,Stratovolcano,Historical
"Prieto, Cerro",Mexico,Mexico,32.418,-115.305,223,Lava dome,Holocene
San Borja Volcanic Field,Mexico,Mexico,28.5,-113.75,1360,Cinder cone,Holocene
"San Luis, Isla",Mexico,Mexico,29.97,-114.4,180,Tuff cone,Holocene
San Martin,Mexico,Mexico,18.57,-95.2,1650,Shield volcano,Historical
San Quintin Volcanic Field,Mexico,Mexico,30.468,-115.996,260,Cinder cone,Holocene
Sanganguey,Mexico,Mexico,21.45,-104.73,2340,Stratovolcano,Holocene
Serdan-Oriental,Mexico,Mexico,19.27,-97.47,3485,Tuff cone,Holocene
Tacana,Mexico,Mexico,15.132,-92.109,4064,Stratovolcano,Historical
"Toluca, Nevado de",Mexico,Mexico,19.108,-99.758,4680,Stratovolcano,Radiocarbon
"Tortuga, Isla",Mexico,Mexico,27.438,-111.881,224,Shield volcano,Holocene
Tres Virgenes,Mexico,Mexico,27.47,-112.591,1934,Stratovolcano,Radiocarbon
Zitacuaro-Valle de Bravo,Mexico,Mexico,19.4,-100.25,3500,Stratovolcano,Radiocarbon
Barcena,Mexico,Mexico-Is,19.3,-110.82,332,Cinder cone,Historical
Socorro,Mexico,Mexico-Is,18.78,-110.95,1050,Shield volcano,Historical
Apo,Philippines,Mindanao-Philippines,6.989,125.269,2938,Stratovolcano,Fumarolic
Balatocan,Philippines,Mindanao-Philippines,8.8,124.92,2450,Compound volcano,Fumarolic
Balut,Philippines,Mindanao-Philippines,5.398,125.376,840,Stratovolcano,Holocene
Camiguin,Philippines,Mindanao-Philippines,9.203,124.673,1552,Stratovolcano,Historical
Kalatungan,Philippines,Mindanao-Philippines,7.95,124.8,2824,Stratovolcano,Holocene
Latukan,Philippines,Mindanao-Philippines,7.65,124.47,2338,Stratovolcano,Holocene
Leonard Range,Philippines,Mindanao-Philippines,7.382,126.047,1080,Stratovolcano,Holocene
Makaturing,Philippines,Mindanao-Philippines,7.644,124.317,1818,Stratovolcano,Holocene
Malindang,Philippines,Mindanao-Philippines,8.22,123.63,2404,Stratovolcano,Holocene
Matutum,Philippines,Mindanao-Philippines,6.37,125.07,2286,Stratovolcano,Holocene
Musuan,Philippines,Mindanao-Philippines,7.877,125.068,646,Tuff cone,Historical
Paco,Philippines,Mindanao-Philippines,9.593,125.52,524,Stratovolcano,Anthropology
Parker,Philippines,Mindanao-Philippines,6.113,124.892,1824,Stratovolcano,Historical
Ragang,Philippines,Mindanao-Philippines,7.691,124.507,2790,Stratovolcano,Historical
Bus-Obo,Mongolia,Mongolia,47.12,109.08,1162,Cinder cone,Holocene
Dariganga Volcanic Field,Mongolia,Mongolia,45.754,114.279,1778,Cinder cone,Holocene
Khanuy Gol,Mongolia,Mongolia,48.67,102.75,1886,Volcanic field,Holocene
Middle Gobi,Mongolia,Mongolia,45.28,106.7,1120,Cinder cone,Holocene
Taryatu-Chulutu,Mongolia,Mongolia,48.133,99.95,2326,Volcanic field,Holocene
Bamus,Papua New Guinea,New Britain-SW Pac,-5.2,151.23,2248,Stratovolcano,Anthropology
Bola,Papua New Guinea,New Britain-SW Pac,-5.141,150.038,1116,Stratovolcano,Holocene
Dakataua,Papua New Guinea,New Britain-SW Pac,-5.094,150.094,408,Caldera,Anthropology
Garove,Papua New Guinea,New Britain-SW Pac,-4.687,149.511,368,Stratovolcano,Holocene
Garua Harbour,Papua New Guinea,New Britain-SW Pac,-5.3,150.07,565,Volcanic field,Holocene
Hargy,Papua New Guinea,New Britain-SW Pac,-5.33,151.1,1148,Stratovolcano,Radiocarbon
Krummel-Garbuna-Welcker,Papua New Guinea,New Britain-SW Pac,-5.416,150.027,564,Stratovolcano,Holocene
Langila,Papua New Guinea,New Britain-SW Pac,-5.525,148.42,1330,Complex volcano,Historical
Lolo,Papua New Guinea,New Britain-SW Pac,-5.466,150.509,796,Stratovolcano,Holocene
Lolobau,Papua New Guinea,New Britain-SW Pac,-4.92,151.158,858,Caldera,Historical
Mundua,Papua New Guinea,New Britain-SW Pac,-4.624,149.339,171,Complex volcano,Holocene
Rabaul,Papua New Guinea,New Britain-SW Pac,-4.271,152.203,688,Pyroclastic shield,Historical
Sulu Range,Papua New Guinea,New Britain-SW Pac,-5.5,150.942,610,Hydrothermal field,Hot Springs
Tavui,Papua New Guinea,New Britain-SW Pac,-4.12,152.2,200,Caldera,Radiocarbon
Ulawun,Papua New Guinea,New Britain-SW Pac,-5.05,151.33,2334,Stratovolcano,Historical
Witori,Papua New Guinea,New Britain-SW Pac,-5.576,150.516,724,Caldera,Historical
Crater Mountain,Papua New Guinea,New Guinea,-6.58,145.08,3233,Stratovolcano,Holocene
Doma Peaks,Papua New Guinea,New Guinea,-5.9,143.15,3568,Stratovolcano,Holocene
Hydrographers Range,Papua New Guinea,New Guinea,-9,148.37,1915,Stratovolcano,Holocene
Koranga,Papua New Guinea,New Guinea,-7.33,146.708,1500,Explosion crater,Holocene
Lamington,Papua New Guinea,New Guinea,-8.95,148.15,1680,Stratovolcano,Historical
Madilogo,Papua New Guinea,New Guinea,-9.2,147.57,850,Pyroclastic cone,Holocene
Managlase Plateau,Papua New Guinea,New Guinea,-9.08,148.33,1342,Volcanic field,Anthropology
Musa River,Papua New Guinea,New Guinea,-9.308,148.13,808,Hydrothermal field,Hot Springs
Sessagara,Papua New Guinea,New Guinea,-9.549,149.151,493,Unknown,Holocene
Victory,Papua New Guinea,New Guinea,-9.2,149.07,1925,Stratovolcano,Historical
Waiowa,Papua New Guinea,New Guinea,-9.57,149.075,640,Pyroclastic cone,Historical
Yelia,Papua New Guinea,New Guinea,-7.05,145.858,3384,Stratovolcano,Holocene
Bam,Papua New Guinea,New Guinea-NE of,-3.613,144.818,685,Stratovolcano,Historical
Blup Blup,Papua New Guinea,New Guinea-NE of,-3.507,144.605,402,Stratovolcano,Holocene
Boisa,Papua New Guinea,New Guinea-NE of,-3.994,144.963,240,Stratovolcano,Holocene
Hankow Reef,Papua New Guinea,New Guinea-NE of,-4.883,146.717,-5,Unknown,Uncertain
Kadovar,Papua New Guinea,New Guinea-NE of,-3.608,144.588,365,Stratovolcano,Holocene
Karkar,Papua New Guinea,New Guinea-NE of,-4.647,145.976,1839,Stratovolcano,Historical
Long Island,Papua New Guinea,New Guinea-NE of,-5.358,147.12,1280,Complex volcano,Historical
Manam,Papua New Guinea,New Guinea-NE of,-4.08,145.037,1807,Stratovolcano,Historical
Ritter Island,Papua New Guinea,New Guinea-NE of,-5.519,148.115,75,Stratovolcano,Historical
Sakar,Papua New Guinea,New Guinea-NE of,-5.414,148.094,992,Stratovolcano,Holocene
Umboi,Papua New Guinea,New Guinea-NE of,-5.592,147.892,1335,Complex volcano,Holocene
Ambitle,Papua New Guinea,New Ireland-SW Pacif,-4.08,153.65,450,Stratovolcano,Radiocarbon
Lihir,Papua New Guinea,New Ireland-SW Pacif,-3.125,152.642,700,Volcanic complex,Holocene
Auckland Volcanic Field,New Zealand,New Zealand,-36.89,174.81,260,Volcanic field,Radiocarbon
Brothers,New Zealand,New Zealand,-34.875,179.075,-1350,Submarine volcano,Fumarolic
Clark,New Zealand,New Zealand,-36.446,177.839,-860,Submarine volcano,Fumarolic
Healy,New Zealand,New Zealand,-35.004,178.973,-980,Submarine volcano,Radiocarbon
Kaikohe-Bay of Islands,New Zealand,New Zealand,-35.3,173.9,388,Volcanic field,Radiocarbon
Maroa,New Zealand,New Zealand,-38.42,176.08,897,Caldera,Tephrochronology
Mayor Island,New Zealand,New Zealand,-37.28,176.25,355,Shield volcano,Radiocarbon
Ngauruhoe,New Zealand,New Zealand,-39.158,175.63,2291,Stratovolcano,Historical
Okataina,New Zealand,New Zealand,-38.12,176.5,1111,Lava dome,Historical
Reporoa,New Zealand,New Zealand,-38.42,176.33,592,Caldera,Tephrochronology
Ruapehu,New Zealand,New Zealand,-39.28,175.57,2797,Stratovolcano,Historical
Rumble II West,New Zealand,New Zealand,-35.353,178.527,-1200,Submarine volcano,Fumarolic
Rumble III,New Zealand,New Zealand,-35.745,178.478,-220,Submarine volcano,Hydrophonic
Rumble IV,New Zealand,New Zealand,-36.13,178.05,-500,Submarine volcano,Fumarolic
Rumble V,New Zealand,New Zealand,-36.142,178.196,-400,Submarine volcano,Fumarolic
Tangaroa,New Zealand,New Zealand,-36.321,178.028,-600,Submarine volcano,Fumarolic
Taranaki,New Zealand,New Zealand,-39.3,174.07,2518,Stratovolcano,Radiocarbon
Taupo,New Zealand,New Zealand,-38.82,176,760,Caldera,Radiocarbon
Tongariro,New Zealand,New Zealand,-39.157,175.632,1978,Stratovolcano,Historical
Whakaari/White Island,New Zealand,New Zealand,-37.52,177.18,294,Stratovolcano,Historical
Whangarei,New Zealand,New Zealand,-35.75,174.27,397,Cinder cone,Holocene
Apoyeque,Nicaragua,Nicaragua,12.242,-86.342,518,Pyroclastic shield,Radiocarbon
"Azul, Volcan",Nicaragua,Nicaragua,12.53,-83.87,201,Cinder cone,Holocene
"Ciguatepe, Cerro El",Nicaragua,Nicaragua,12.53,-86.142,603,Stratovolcano,Holocene
Concepcion,Nicaragua,Nicaragua,11.538,-85.622,1700,Stratovolcano,Historical
Cosiguina,Nicaragua,Nicaragua,12.98,-87.57,872,Stratovolcano,Historical
Esteli,Nicaragua,Nicaragua,13.17,-86.4,899,Fissure vent,Holocene
Granada,Nicaragua,Nicaragua,11.9,-85.979,250,Fissure vent,Holocene
"Lajas, Las",Nicaragua,Nicaragua,12.3,-85.73,926,Shield volcano,Holocene
Maderas,Nicaragua,Nicaragua,11.446,-85.515,1394,Stratovolcano,Holocene
Masaya,Nicaragua,Nicaragua,11.985,-86.165,594,Caldera,Historical
Mombacho,Nicaragua,Nicaragua,11.826,-85.968,1344,Stratovolcano,Holocene
Momotombo,Nicaragua,Nicaragua,12.423,-86.539,1270,Stratovolcano,Historical
"Negro, Cerro",Nicaragua,Nicaragua,12.506,-86.702,728,Cinder cone,Historical
Nejapa-Miraflores,Nicaragua,Nicaragua,12.12,-86.32,360,Fissure vent,Holocene
"Pilas, Las",Nicaragua,Nicaragua,12.495,-86.688,1088,Complex volcano,Historical
Rota,Nicaragua,Nicaragua,12.55,-86.75,832,Stratovolcano,Holocene
San Cristobal,Nicaragua,Nicaragua,12.702,-87.004,1745,Stratovolcano,Historical
Telica,Nicaragua,Nicaragua,12.606,-86.84,1036,Stratovolcano,Historical
Zapatera,Nicaragua,Nicaragua,11.73,-85.82,629,Shield volcano,Holocene
Galapagos Rift,Pacific Ocean,Pacific-E,0.792,-86.15,-2430,Submarine volcano,Historical
Galapagos Rift,Pacific Ocean,Pacific-E,0.792,-86.15,-2430,Submarine volcano,Historical
Northern EPR at 10.7°N,Pacific Ocean,Pacific-E,10.73,-103.58,-2900,Submarine volcano,Historical
Northern EPR at 16°N,Pacific Ocean,Pacific-E,15.83,-105.43,-2300,Submarine volcano,Magnetism
Northern EPR at 17°N,Pacific Ocean,Pacific-E,16.55,-105.32,-2700,Submarine,Uncertain
Northern EPR at 9.8°N,Pacific Ocean,Pacific-E,9.83,-104.3,-2500,Submarine volcano,Historical
Southern EPR at 8°S,Pacific Ocean,Pacific-E,-8.27,-107.95,-2800,Submarine volcano,Historical
Southern EPR-Segment I,Pacific Ocean,Pacific-E,-18.53,-113.42,-2600,Submarine volcano,Magnetism
Southern EPR-Segment J,Pacific Ocean,Pacific-E,-18.175,-113.35,-2650,Submarine volcano,Magnetism
Southern EPR-Segment K,Pacific Ocean,Pacific-E,-17.436,-113.206,-2566,Submarine volcano,Historical
Unnamed,Pacific Ocean,Pacific-E,9.82,-104.3,-2500,Submarine volcano,Historical
West Valley Segment,Canada,Pacific-NE,48.78,-128.64,-2550,Submarine,Uncertain
Axial Seamount,Pacific Ocean,Pacific-NE,45.95,-130,-1410,Submarine volcano,Historical
Cleft Segment,Pacific Ocean,Pacific-NE,44.83,-130.3,-2140,Submarine volcano,Historical
CoAxial Segment,Pacific Ocean,Pacific-NE,46.52,-129.58,-2400,Submarine,Uncertain
Cobb Segment,Pacific Ocean,Pacific-NE,46.88,-129.33,-2100,Submarine volcano,Historical
East Blanco Depression,Pacific Ocean,Pacific-NE,44.267,-129.879,-3000,Submarine,Uncertain
Endeavour Segment,Pacific Ocean,Pacific-NE,47.95,-129.1,-2050,Submarine volcano,Historical
Escanaba Segment,Pacific Ocean,Pacific-NE,40.98,-127.5,-1700,Submarine volcano,Uranium-series
Jackson Segment,Pacific Ocean,Pacific-NE,42.15,-127.05,-3100,Submarine,Uncertain
North Gorda Ridge Segment,Pacific Ocean,Pacific-NE,42.67,-126.78,-3000,Submarine volcano,Historical
Antipodes Island,New Zealand,Pacific-S,-49.683,178.767,402,Pyroclastic cones,Holocene?
Hollister Ridge,Pacific Ocean,Pacific-S,-53.998,-139.845,-1000,Submarine volcano,Uncertain
Udintsev Transform,Pacific Ocean,Pacific-S,-56.153,-143.373,-5700,Submarine volcano,Uncertain
Unnamed,Pacific Ocean,Pacific-S,-53.9,-140.3,-1000,Submarine volcano,Uncertain
Baru,Panama,Panama,8.808,-82.543,3474,Complex volcano,Historical
"Valle, El",Panama,Panama,8.58,-80.17,1185,Stratovolcano,Holocene?
Andahua-Orcopampa,Peru,Peru,-15.42,-72.33,4713,Lava dome,Holocene
"Auquihuato, Cerro",Peru,Peru,-15.07,-73.18,4980,Stratovolcano,Holocene
"Casiri, Nevados",Peru,Peru,-17.47,-69.813,5650,Stratovolcano,Holocene
"Chachani, Nevado",Peru,Peru,-16.191,-71.53,6057,Stratovolcano,Holocene?
Coropuna,Peru,Peru,-15.52,-72.65,6377,Stratovolcano,Historical
Huambo,Peru,Peru,-15.78,-72.08,4554,Stratovolcano,Holocene
Huaynaputina,Peru,Peru,-16.608,-70.85,4850,Stratovolcano,Historical
"Misti, El",Peru,Peru,-16.294,-71.409,5822,Stratovolcano,Historical
"Nicholson, Cerro",Peru,Peru,-16.261,-71.754,2525,Cinder cone,Holocene
Quimsachata,Peru,Peru,-14.133,-71.364,3848,Stratovolcano,Holocene
Sabancaya,Peru,Peru,-15.787,-71.857,5960,Stratovolcanoes,Historical
Sara Sara,Peru,Peru,-15.33,-73.45,5522,Cinder cone,Holocene
Ticsani,Peru,Peru,-16.755,-70.595,5408,Stratovolcano,Holocene
Tutupaca,Peru,Peru,-17.026,-70.372,5801,Stratovolcano,Historical
Ubinas,Peru,Peru,-16.355,-70.903,5672,Stratovolcano,Historical
Yucamane,Peru,Peru,-17.184,-70.196,5495,Stratovolcano,Historical
Biliran,Philippines,Philippines-C,11.523,124.535,1301,Compound volcano,Historical
Cabalian,Philippines,Philippines-C,10.285,125.218,912,Stratovolcano,Holocene
Cuernos de Negros,Philippines,Philippines-C,9.25,123.17,1862,Stratovolcano,Holocene
Kanlaon,Philippines,Philippines-C,10.412,123.132,2435,Stratovolcano,Historical
Mahagnao,Philippines,Philippines-C,10.882,124.888,860,Stratovolcano,Fumarolic
Mandalagan,Philippines,Philippines-C,10.65,123.25,1885,Stratovolcano,Holocene
Silay,Philippines,Philippines-C,10.77,123.23,1510,Stratovolcano,Holocene
Hanish,Yemen,Red Sea,13.72,42.73,422,Shield volcano,Holocene
"Tair, Jebel at",Yemen,Red Sea,15.55,41.83,244,Stratovolcano,Historical
Zubair Group,Yemen,Red Sea,15.05,42.18,191,Shield volcano,Historical
Zukur,Yemen,Red Sea,14.02,42.75,624,Shield volcano,Holocene
Azas Plateau,Russia,Russia-SE,52.433,98.303,2765,Cinder cone,Holocene
Jom-Bolok,Russia,Russia-SE,52.713,99.021,2047,Cinder cone,Holocene
Tunkin Depression,Russia,Russia-SE,51.5,102.5,1200,Volcanic field,Holocene
Udokan Plateau,Russia,Russia-SE,56.28,117.77,2180,Shield volcano,Radiocarbon
Vitim Volcanic Field,Russia,Russia-SE,53.75,113.25,1250,Cinder cone,Holocene
Elbrus,Russia,Russia-SW,43.351,42.442,5642,Stratovolcano,Tephrochronology
Akusekijima,Japan,Ryukyu Is,29.465,129.594,555,Stratovolcanoes,Holocene?
Io-Torishima,Japan,Ryukyu Is,27.881,128.223,212,Complex volcano,Historical
Kikai,Japan,Ryukyu Is,30.793,130.305,704,Caldera,Historical
Kuchino-shima,Japan,Ryukyu Is,29.97,129.93,627,Stratovolcano,Holocene
Kuchinoerabujima,Japan,Ryukyu Is,30.443,130.217,657,Stratovolcano,Historical
Kuchinoshima,Japan,Ryukyu Is,29.968,129.926,628,Stratovolcanoes,Radiocarbon
Nakanoshima,Japan,Ryukyu Is,29.859,129.857,979,Stratovolcano,Historical
Submarine Volcano NNE of Iriomotejima,Japan,Ryukyu Is,24.57,123.93,-200,Submarine volcano,Historical
Suwanosejima,Japan,Ryukyu Is,29.638,129.714,796,Stratovolcano,Historical
Yokoatejima,Japan,Ryukyu Is,28.797,128.997,495,Stratovolcano,Holocene
Tutuila,American Samoa,Samoa-SW Pacific,-14.295,-170.7,653,Tuff cone,Holocene
Savai'i,Samoa,Samoa-SW Pacific,-13.612,-172.525,1858,Shield volcano,Historical
Upolu,Samoa,Samoa-SW Pacific,-13.935,-171.72,1100,Shield volcano,Holocene
Ofu-Olosega,United States,Samoa-SW Pacific,-14.175,-169.618,639,Shield volcano,Historical
Ta'u,United States,Samoa-SW Pacific,-14.23,-169.454,931,Shield volcano,Holocene
Vailulu'u,United States,Samoa-SW Pacific,-14.215,-169.058,-592,Submarine volcano,Uncertain
Awu,Indonesia,Sangihe Is-Indonesia,3.689,125.447,1318,Stratovolcano,Historical
Banua Wuhu,Indonesia,Sangihe Is-Indonesia,3.138,125.491,-5,Submarine volcano,Historical
Karangetang,Indonesia,Sangihe Is-Indonesia,2.781,125.407,1797,Stratovolcano,Historical
Ruang,Indonesia,Sangihe Is-Indonesia,2.3,125.37,725,Stratovolcano,Historical
Tinakula,Solomon Is.,Santa Cruz Is-SW Pac,-10.386,165.804,796,Stratovolcano,Historical
